,ID,Code,Language Name,Alternate Names,Endangerment Status,Estimated Speakers,Language Family,Dialects/Variants,Additional Information,Notes,Geographical Regions,Region,Coordinates,Index,Country,Latitude,Longitude
0,3645,knw,!Xun,Ju; !Xun (Ekoka); Kung-Ekoka; !Kung; Ekoka-!Xû; Kung; !Ku; !Xu; !Hu; Qxü !Khung; !Xung; Ekoka;,Vulnerable,16000.0,Kx'a ,"Southeastern !Xun, Northwestern !Xun, Central !Xun",None,None,South Africa;Namibia;Angola;,Africa,"(-28.74358, 23.983154)",0,South Africa,-28.74358,23.983154
1,3645,knw,!Xun,Ju; !Xun (Ekoka); Kung-Ekoka; !Kung; Ekoka-!Xû; Kung; !Ku; !Xu; !Hu; Qxü !Khung; !Xung; Ekoka;,Vulnerable,16000.0,Kx'a ,"Southeastern !Xun, Northwestern !Xun, Central !Xun",None,None,South Africa;Namibia;Angola;,Africa,"(-28.74358, 23.983154)",0,Namibia,-28.74358,23.983154
2,3645,knw,!Xun,Ju; !Xun (Ekoka); Kung-Ekoka; !Kung; Ekoka-!Xû; Kung; !Ku; !Xu; !Hu; Qxü !Khung; !Xung; Ekoka;,Vulnerable,16000.0,Kx'a ,"Southeastern !Xun, Northwestern !Xun, Central !Xun",None,None,South Africa;Namibia;Angola;,Africa,"(-28.74358, 23.983154)",0,Angola,-28.74358,23.983154
3,3645,knw,!Xun,Ju; !Xun (Ekoka); Kung-Ekoka; !Kung; Ekoka-!Xû; Kung; !Ku; !Xu; !Hu; Qxü !Khung; !Xung; Ekoka;,Vulnerable,16000.0,Kx'a ,"Southeastern !Xun, Northwestern !Xun, Central !Xun",None,None,South Africa;Namibia;Angola;,Africa,"(-17.560247, 18.050537)",0,South Africa,-17.560247,18.050537
4,3645,knw,!Xun,Ju; !Xun (Ekoka); Kung-Ekoka; !Kung; Ekoka-!Xû; Kung; !Ku; !Xu; !Hu; Qxü !Khung; !Xung; Ekoka;,Vulnerable,16000.0,Kx'a ,"Southeastern !Xun, Northwestern !Xun, Central !Xun",None,None,South Africa;Namibia;Angola;,Africa,"(-17.560247, 18.050537)",0,Namibia,-17.560247,18.050537
5,3645,knw,!Xun,Ju; !Xun (Ekoka); Kung-Ekoka; !Kung; Ekoka-!Xû; Kung; !Ku; !Xu; !Hu; Qxü !Khung; !Xung; Ekoka;,Vulnerable,16000.0,Kx'a ,"Southeastern !Xun, Northwestern !Xun, Central !Xun",None,None,South Africa;Namibia;Angola;,Africa,"(-17.560247, 18.050537)",0,Angola,-17.560247,18.050537
6,3645,knw,!Xun,Ju; !Xun (Ekoka); Kung-Ekoka; !Kung; Ekoka-!Xû; Kung; !Ku; !Xu; !Hu; Qxü !Khung; !Xung; Ekoka;,Vulnerable,16000.0,Kx'a ,"Southeastern !Xun, Northwestern !Xun, Central !Xun",None,None,South Africa;Namibia;Angola;,Africa,"(-19.621892, 20.253296)",0,South Africa,-19.621892,20.253296
7,3645,knw,!Xun,Ju; !Xun (Ekoka); Kung-Ekoka; !Kung; Ekoka-!Xû; Kung; !Ku; !Xu; !Hu; Qxü !Khung; !Xung; Ekoka;,Vulnerable,16000.0,Kx'a ,"Southeastern !Xun, Northwestern !Xun, Central !Xun",None,None,South Africa;Namibia;Angola;,Africa,"(-19.621892, 20.253296)",0,Namibia,-19.621892,20.253296
8,3645,knw,!Xun,Ju; !Xun (Ekoka); Kung-Ekoka; !Kung; Ekoka-!Xû; Kung; !Ku; !Xu; !Hu; Qxü !Khung; !Xung; Ekoka;,Vulnerable,16000.0,Kx'a ,"Southeastern !Xun, Northwestern !Xun, Central !Xun",None,None,South Africa;Namibia;Angola;,Africa,"(-19.621892, 20.253296)",0,Angola,-19.621892,20.253296
9,3645,knw,!Xun,Ju; !Xun (Ekoka); Kung-Ekoka; !Kung; Ekoka-!Xû; Kung; !Ku; !Xu; !Hu; Qxü !Khung; !Xung; Ekoka;,Vulnerable,16000.0,Kx'a ,"Southeastern !Xun, Northwestern !Xun, Central !Xun",None,None,South Africa;Namibia;Angola;,Africa,"(-21.749296, 19.89624)",0,South Africa,-21.749296,19.89624
10,3645,knw,!Xun,Ju; !Xun (Ekoka); Kung-Ekoka; !Kung; Ekoka-!Xû; Kung; !Ku; !Xu; !Hu; Qxü !Khung; !Xung; Ekoka;,Vulnerable,16000.0,Kx'a ,"Southeastern !Xun, Northwestern !Xun, Central !Xun",None,None,South Africa;Namibia;Angola;,Africa,"(-21.749296, 19.89624)",0,Namibia,-21.749296,19.89624
11,3645,knw,!Xun,Ju; !Xun (Ekoka); Kung-Ekoka; !Kung; Ekoka-!Xû; Kung; !Ku; !Xu; !Hu; Qxü !Khung; !Xung; Ekoka;,Vulnerable,16000.0,Kx'a ,"Southeastern !Xun, Northwestern !Xun, Central !Xun",None,None,South Africa;Namibia;Angola;,Africa,"(-21.749296, 19.89624)",0,Angola,-21.749296,19.89624
12,3956,bpk,'Ôrôê,Orowe; Boewe; Neukaledonien;,Endangered,590.0,Austronesian; Malayo-Polynesian; Oceanic; New Caledonian,,None,None,New Caledonia;,Pacific,"(-21.4223, 165.4678)",1,New Caledonia,-21.4223,165.4678
13,1933,taa,(Lower) Tanana,,Critically Endangered,25.0,Athabaskan-Eyak-Tlingit; Dene (Athabaskan),Minto-Nenana; Salcha; Chena,None,"Tanana is the language of the Lower Tanana river, extending from Salcha through Fairbanks and Nenana to the Minto Flats.",USA;,North America,"(65.157778, -149.37)",2,United States of America,65.157778,-149.37
14,1933,taa,(Lower) Tanana,,Critically Endangered,25.0,Athabaskan-Eyak-Tlingit; Dene (Athabaskan),Minto-Nenana; Salcha; Chena,None,"Tanana is the language of the Lower Tanana river, extending from Salcha through Fairbanks and Nenana to the Minto Flats.",USA;,North America,"(64.521111, -146.980556)",2,United States of America,64.521111,-146.980556
15,1933,taa,(Lower) Tanana,,Critically Endangered,25.0,Athabaskan-Eyak-Tlingit; Dene (Athabaskan),Minto-Nenana; Salcha; Chena,None,"Tanana is the language of the Lower Tanana river, extending from Salcha through Fairbanks and Nenana to the Minto Flats.",USA;,North America,"(64.558056, -149.090556)",2,United States of America,64.558056,-149.090556
16,1043,con,A'ingae,Kofane; Cofán; Kofán; A'i; A'ingaé; Colin; Kofan; A'ingae;,Vulnerable,1500.0,Isolate; South American,,None,None,Colombia;Ecuador;,South America,"(0.054639, -77.409417)",3,Colombia,0.054639,-77.409417
17,1043,con,A'ingae,Kofane; Cofán; Kofán; A'i; A'ingaé; Colin; Kofan; A'ingae;,Vulnerable,1500.0,Isolate; South American,,None,None,Colombia;Ecuador;,South America,"(0.054639, -77.409417)",3,Ecuador,0.054639,-77.409417
18,3581,aas,Aasáx,"Asax; Asá; Aasá; Assa; Asak; ""Ndorobo""; ""Dorobo""; Lamanik; Il Konono; Asa; Aasax;",Dormant,0.0,Afro-Asiatic; Cushitic; South Cushitic,,None,None,Tanzania;,Africa,"(-5.1948, 37.738)",4,Tanzania,-5.1948,37.738
19,2011,abg; abag1245,Abaga,Wagaba; Wagama; Vaga,Critically Endangered,5.0,Nuclear Trans-New Guinea; Kainantu-Goroka; Siane-Yagaria; Kamano-Yagaria,,None,None,Papua New Guinea;,Pacific,"(-6.12, 145.66)",5,Papua New Guinea,-6.12,145.66
20,3584,abf,Abai Sungai,,Endangered,500.0,Austronesian; Malayo-Polynesian; North Borneo; Sabahan,,None,None,Malaysia;,Southeast Asia,"(5.587, 118.3695)",6,Malaysia,5.587,118.3695
21,10590,aau,Abau,Green River; Djarok,Threatened,7000.0,Sepik,Central; Down-River; Down-River Border; Up-River,None,None,Papua New Guinea;,Pacific,"(-3.97, 141.32)",7,Papua New Guinea,-3.97,141.32
22,1415,abq; abaz1241,Abaza,абаза бызшва‎; Abazintsy; Abazin; Ahuwa; Tapanta; Ashuwa;,Vulnerable,47880.0,Northwest Caucasian; Abkhaz-Adyghe; Abkhaz-Abazin,"Ashkaraua/Ashkherewa (Ashkar, Ashkharywa, Ashxar, Shkaruau); Bezshagh; T'ap'anta; Psyzh-Krasnovostok; Abazakt; Apsua; Kubin-Elburgan; Kuvin","Abaza belongs to the Abkhazo-Adyghian group of the Caucasian languages. It is close to Abkhaz, but contains also elements characteristic of Kabardian. Of all languages spoken in the former USSR, Abaza phonetics are considered the most difficult. The Abaza language is divided into two dialects corresponding to the two kinship communities Tapanta and Shkaraua. There are five subdialects: Abazakt, Apsua, Kubin-Elburgan, Kuvin and Psyzh-Krasnovostok. (The Redbook of the Peoples of the Russian Empire, 2008)",None,Russia;,Caucasus,"(44.1556, 41.9368)",8,Russia,44.1556,41.9368
23,1415,abq; abaz1241,Abaza,абаза бызшва‎; Abazintsy; Abazin; Ahuwa; Tapanta; Ashuwa;,Vulnerable,47880.0,Northwest Caucasian; Abkhaz-Adyghe; Abkhaz-Abazin,"Ashkaraua/Ashkherewa (Ashkar, Ashkharywa, Ashxar, Shkaruau); Bezshagh; T'ap'anta; Psyzh-Krasnovostok; Abazakt; Apsua; Kubin-Elburgan; Kuvin","Abaza belongs to the Abkhazo-Adyghian group of the Caucasian languages. It is close to Abkhaz, but contains also elements characteristic of Kabardian. Of all languages spoken in the former USSR, Abaza phonetics are considered the most difficult. The Abaza language is divided into two dialects corresponding to the two kinship communities Tapanta and Shkaraua. There are five subdialects: Abazakt, Apsua, Kubin-Elburgan, Kuvin and Psyzh-Krasnovostok. (The Redbook of the Peoples of the Russian Empire, 2008)",None,Russia;,Europe,"(44.1556, 41.9368)",8,Russia,44.1556,41.9368
24,1415,abq; abaz1241,Abaza,абаза бызшва‎; Abazintsy; Abazin; Ahuwa; Tapanta; Ashuwa;,Vulnerable,47880.0,Northwest Caucasian; Abkhaz-Adyghe; Abkhaz-Abazin,"Ashkaraua/Ashkherewa (Ashkar, Ashkharywa, Ashxar, Shkaruau); Bezshagh; T'ap'anta; Psyzh-Krasnovostok; Abazakt; Apsua; Kubin-Elburgan; Kuvin","Abaza belongs to the Abkhazo-Adyghian group of the Caucasian languages. It is close to Abkhaz, but contains also elements characteristic of Kabardian. Of all languages spoken in the former USSR, Abaza phonetics are considered the most difficult. The Abaza language is divided into two dialects corresponding to the two kinship communities Tapanta and Shkaraua. There are five subdialects: Abazakt, Apsua, Kubin-Elburgan, Kuvin and Psyzh-Krasnovostok. (The Redbook of the Peoples of the Russian Empire, 2008)",None,Russia;,East Asia,"(44.1556, 41.9368)",8,Russia,44.1556,41.9368
25,9669,abp,Abellen Ayta,Abenlen; Ayta Abenlen Sambal; Aburlin Negrito; Sambal,Threatened,3500.0,Austronesian; Malayo-Polynesian; Central Luzon,,None,None,Philippines;,Southeast Asia,,9,Philippines,,
26,1763,bsa; abin1243,Abinomn,"Avinomen; ""Baso""; Foya; Foja;",Critically Endangered,50.0,Isolate; Pacific,,None,None,Indonesia;,Southeast Asia,"(-2.92, 138.89)",10,Indonesia,-2.92,138.89
27,3847,aob,Abom,,Critically Endangered,15.0,Trans-New Guinea; Tirio,,None,None,Papua New Guinea;,Pacific,"(-8.424996376, 142.9303589)",11,Papua New Guinea,-8.424996376,142.9303589
28,10638,ado,Abu,Adjora; Adjoria; Azao,Threatened,2347.0,Lower Sepik-Ramu; Ramu; Grass,,None,None,Papua New Guinea;,Pacific,"(-4.24, 144.47)",12,Papua New Guinea,-4.24,144.47
29,10569,aah,Abu',Abu’ Arapesh; Ua,Threatened,2560.0,Torricelli; Arapeshan,Matapau,None,None,Papua New Guinea;,Pacific,"(-3.4, 142.8)",13,Papua New Guinea,-3.4,142.8
30,1381,abz,Abui,"Barue; ""Barawahing""; Namatalaki;",Threatened,16000.0,Timor-Alor-Pantar,Atimelang; Kobola; Alakaman;,None,None,Indonesia;,Southeast Asia,,14,Indonesia,,
31,10730,kgr,Abun,Karon Pantai; Madik; Yimbun,Threatened,3000.0,Isolate; Pacific,Abun Ji /l/; Abun Ji /r/; Abun Ye; Abun Tat,None,"""There are four identifiable dialects all of which are mutually intelligible, although intelligibility decreases when greater geographic distance is involved."" (Berry and Berry 1999:1)",Indonesia;,Southeast Asia,"(-0.52, 132.19)",15,Indonesia,-0.52,132.19
32,10730,kgr,Abun,Karon Pantai; Madik; Yimbun,Threatened,3000.0,Isolate; Pacific,Abun Ji /l/; Abun Ji /r/; Abun Ye; Abun Tat,None,"""There are four identifiable dialects all of which are mutually intelligible, although intelligibility decreases when greater geographic distance is involved."" (Berry and Berry 1999:1)",Indonesia;,Southeast Asia,"(-0.66, 131.91)",15,Indonesia,-0.66,131.91
33,641,aca,Achagua,Achagua; Xagua; Ajagua; Achawa;,Endangered,283.0,Arawakan; Northern Arawakan; Upper Amazon,,None,None,Colombia;,South America,"(4.434, -70.8837)",16,Colombia,4.434,-70.8837
34,1520,guq,Aché,Axe; Guaiaqui; Guoyagui; Guayakí; Guayaki-Ache; Guayaki; Guayaquí; Guaiaqui; Guajaki; Guoyagui;,Severely Endangered,200.0,Tupian; Tupi-Guaranian; Guaranian,Northern Aché; Yvyturuzu Aché; Ñacunday (Southern) Aché; Ypeti Aché,None,None,Paraguay;,South America,"(-25.25, -55.1666666667)",17,Paraguay,-25.25,-55.1666666667
35,3591,acz,Acheron,Garme; Asheron; Aceron; Achurun;,Vulnerable,70000.0, Talodi,Eastern Acheron; Western Acheron;,None,None,Sudan;,Africa,"(10.809, 30.2453)",18,Sudan,10.809,30.2453
36,647,acr,Achi',Rabinal K'iche'; Achí;,Vulnerable,51593.0,Mayan; K'ichean,"Cubulco, Rabinal. Some consider Cubulco a dialect of K'iche', and many consider all of Achi', Rabinal and Cubulco, to be just varieties of K'iche'. They are mutually intelligible.",Considered a dialect of K'iche' by many linguists.,None,Guatemala;,Mexico,"(15.0845, -90.4888)",19,Guatemala,15.0845,-90.4888
37,647,acr,Achi',Rabinal K'iche'; Achí;,Vulnerable,51593.0,Mayan; K'ichean,"Cubulco, Rabinal. Some consider Cubulco a dialect of K'iche', and many consider all of Achi', Rabinal and Cubulco, to be just varieties of K'iche'. They are mutually intelligible.",Considered a dialect of K'iche' by many linguists.,None,Guatemala;,Central America,"(15.0845, -90.4888)",19,Guatemala,15.0845,-90.4888
38,647,acr,Achi',Rabinal K'iche'; Achí;,Vulnerable,51593.0,Mayan; K'ichean,"Cubulco, Rabinal. Some consider Cubulco a dialect of K'iche', and many consider all of Achi', Rabinal and Cubulco, to be just varieties of K'iche'. They are mutually intelligible.",Considered a dialect of K'iche' by many linguists.,None,Guatemala;,Caribbean,"(15.0845, -90.4888)",19,Guatemala,15.0845,-90.4888
39,648,acu,Achuar,Achual; Achuar-Shiwiar; Achuale; Achuara; Jívaro; Maina,Threatened,5443.0,Chicham family (Jivaroan),,None,"Kaufman (2007: 69) considers Jívaro a “language area” with two emergent languages, Jívaro and Aguaruna. Shuar, Achuar, Aguaruna, and Huambisa are closely related languages or dialects of a single language.",Peru;Ecuador;,South America,"(-2.876318, -77.586775)",20,Peru,-2.876318,-77.586775
40,648,acu,Achuar,Achual; Achuar-Shiwiar; Achuale; Achuara; Jívaro; Maina,Threatened,5443.0,Chicham family (Jivaroan),,None,"Kaufman (2007: 69) considers Jívaro a “language area” with two emergent languages, Jívaro and Aguaruna. Shuar, Achuar, Aguaruna, and Huambisa are closely related languages or dialects of a single language.",Peru;Ecuador;,South America,"(-2.876318, -77.586775)",20,Ecuador,-2.876318,-77.586775
41,1004,acv,Achumawi,Achumawi; Achomawi; Pitt River; Achoma'wi; Achowawi;,Critically Endangered,10.0,Palaihnihan,"Downriver dialect groups: Madesiwi, Itsatawi, Ilmawi, Achumawi (proper); Upriver dialect groups: Atwamwi, Astariwawi, Kosalektawi, Hammawi, Hewisedawi",None,None,USA;,North America,"(41.320107, -121.129761)",21,United States of America,41.320107,-121.129761
42,650,kjq,Acoma-Laguna,Western Keres Pueblo; Western Keresan; Acoma;,Threatened,4000.0,Keresan,Acoma; Laguna,None,None,USA;,North America,"(34.8964, -107.5816)",22,United States of America,34.8964,-107.5816
43,6909,ads,Adamorobe Sign Language,,Threatened,35.0,Sign Language; African,,None,None,Ghana;,Africa,"(5.859378, -0.197951)",23,Ghana,5.859378,-0.197951
44,9470,adn,Adang,Alor;,Endangered,7000.0,Timor-Alor-Pantar; Alor,,None,None,Indonesia;,Southeast Asia,"(-8.195, 124.484)",24,Indonesia,-8.195,124.484
45,2827,tiu,Adasen Itneg,"Adasen; Addasen Tinguian; Addasen; Itneg, Adasen",Threatened,4000.0,Austronesian; Malayo-Polynesian; Northern Luzon; Cagayan Valley,Western Addasen; Eastern Addasen;,None,None,Philippines;,Southeast Asia,,25,Philippines,,
46,1130,adi,Adi,崩尼-博嘎爾语; Lho-Pa; Abhor; Abor; Boga'er Luoba; Luoba; Lhoba; Boga'er; Bengni-Boga'er; Bokar; Adi-Bokar; Na Bengni; Bengni; Miri; Abor-Miri; Miśing,At risk,100190.0,Sino-Tibetan; Tani,Ashing; Bokar; Tangam; Shimong; Gallong; Minyong; Pasi; Pailibo; Bori; Karko; Pangi; Padam; Komkar; Ramo,None,"Ethnologue's Adi [adi] amalgamates several ethnolinguistically and linguistically distinct groups and thus subsumes several languages:Ethnologue listed varieties:  Ashing, Bokar (Boga’er Luoba), Bori, Gallong (Galong), Karko, Komkar, Milang, Minyong, Padam, Pailibo, Pangi, Pasi, Ramo, Shimong, Tangam. Milang is definitely a separate language (possibly not a member of the Tani family). Bokar, Pailibo, Ramo and Padam also are all most likely separate languages. Bori, Minyong and Tangam also may be separate languages.",India;China;,South Asia,"(28.526319, 93.115814)",26,India,28.526319,93.115814
47,1130,adi,Adi,崩尼-博嘎爾语; Lho-Pa; Abhor; Abor; Boga'er Luoba; Luoba; Lhoba; Boga'er; Bengni-Boga'er; Bokar; Adi-Bokar; Na Bengni; Bengni; Miri; Abor-Miri; Miśing,At risk,100190.0,Sino-Tibetan; Tani,Ashing; Bokar; Tangam; Shimong; Gallong; Minyong; Pasi; Pailibo; Bori; Karko; Pangi; Padam; Komkar; Ramo,None,"Ethnologue's Adi [adi] amalgamates several ethnolinguistically and linguistically distinct groups and thus subsumes several languages:Ethnologue listed varieties:  Ashing, Bokar (Boga’er Luoba), Bori, Gallong (Galong), Karko, Komkar, Milang, Minyong, Padam, Pailibo, Pangi, Pasi, Ramo, Shimong, Tangam. Milang is definitely a separate language (possibly not a member of the Tani family). Bokar, Pailibo, Ramo and Padam also are all most likely separate languages. Bori, Minyong and Tangam also may be separate languages.",India;China;,East Asia,"(28.526319, 93.115814)",26,India,28.526319,93.115814
48,1130,adi,Adi,崩尼-博嘎爾语; Lho-Pa; Abhor; Abor; Boga'er Luoba; Luoba; Lhoba; Boga'er; Bengni-Boga'er; Bokar; Adi-Bokar; Na Bengni; Bengni; Miri; Abor-Miri; Miśing,At risk,100190.0,Sino-Tibetan; Tani,Ashing; Bokar; Tangam; Shimong; Gallong; Minyong; Pasi; Pailibo; Bori; Karko; Pangi; Padam; Komkar; Ramo,None,"Ethnologue's Adi [adi] amalgamates several ethnolinguistically and linguistically distinct groups and thus subsumes several languages:Ethnologue listed varieties:  Ashing, Bokar (Boga’er Luoba), Bori, Gallong (Galong), Karko, Komkar, Milang, Minyong, Padam, Pailibo, Pangi, Pasi, Ramo, Shimong, Tangam. Milang is definitely a separate language (possibly not a member of the Tani family). Bokar, Pailibo, Ramo and Padam also are all most likely separate languages. Bori, Minyong and Tangam also may be separate languages.",India;China;,South Asia,"(28.526319, 93.115814)",26,China,28.526319,93.115814
49,1130,adi,Adi,崩尼-博嘎爾语; Lho-Pa; Abhor; Abor; Boga'er Luoba; Luoba; Lhoba; Boga'er; Bengni-Boga'er; Bokar; Adi-Bokar; Na Bengni; Bengni; Miri; Abor-Miri; Miśing,At risk,100190.0,Sino-Tibetan; Tani,Ashing; Bokar; Tangam; Shimong; Gallong; Minyong; Pasi; Pailibo; Bori; Karko; Pangi; Padam; Komkar; Ramo,None,"Ethnologue's Adi [adi] amalgamates several ethnolinguistically and linguistically distinct groups and thus subsumes several languages:Ethnologue listed varieties:  Ashing, Bokar (Boga’er Luoba), Bori, Gallong (Galong), Karko, Komkar, Milang, Minyong, Padam, Pailibo, Pangi, Pasi, Ramo, Shimong, Tangam. Milang is definitely a separate language (possibly not a member of the Tani family). Bokar, Pailibo, Ramo and Padam also are all most likely separate languages. Bori, Minyong and Tangam also may be separate languages.",India;China;,East Asia,"(28.526319, 93.115814)",26,China,28.526319,93.115814
50,3593,adt,Adnyamathanha,Adynyamathanha; Wailpi; Wailbi; Waljbi; Wipie; Ad'n'amadana; Anjimatana; Anjiwatana; Archualda; Benbakanjamata; Binbarnja; Gadjnjamada; Jandali; Kanjimata; Keydnjmarda; Mardala; Nimalda; Nuralda; Unyamootha; Umbertana; Adnyamathana; Anjamutina; Anyamatana; Kudnamietha; Kutchamoota; Keydnjamarda; Mardula; Nimbalda; Nimbaldi; Atnyamathanha;,Endangered,100.0,Pama-Nyungan; Thura-Yura,,None,None,Australia;,Australia,"(-30.83714135, 139.1215397)",28,Australia,-30.83714135,139.1215397
51,581,adz,Adzera,"Azera, Acira, Atzera, Atsera",Vulnerable,28900.0,Austronesian; Malayo-Polynesian; Oceanic; North New Guinea,Amari;,None,None,Papua New Guinea;,Pacific,"(-6.39, 146.29)",29,Papua New Guinea,-6.39,146.29
52,3596,aeq,Aer,,Endangered,200.0,Indo-European; Indo-Iranian; Indo-Aryan; Central Zone,Jikrio Goth Aer; Jamesabad Aer,None,None,Pakistan;,South Asia,"(25.272921, 69.290285)",30,Pakistan,25.272921,69.290285
53,3600,aft,Afitti,Ditti; Unietti; Affitti; Dinik; Affiti;,Endangered,4000.0,Nyimang,Afitti; Ditti,None,None,Sudan;,Africa,,31,Sudan,,
54,2799,ulf,Afra,Usku,Threatened,115.0,Isolate; Pacific,,None,None,Indonesia;,Southeast Asia,"(-3.5449, 140.7499)",32,Indonesia,-3.5449,140.7499
55,10069,5qc,Aftari,,Endangered,500.0,Indo-European; Indo-Iranian; Iranian; Northwest; Semnan area,,None,None,Iran;,Near East,"(35.36, 53.7)",33,Iran,35.36,53.7
56,3879,avo,Agavotaguerra,Agavotoküeng; Agavotoqüeng; Agavo-queng,Dormant,0.0,Arawakan; Southern Arawakan; Central,,"Agayotoguerra may be a dialect of Yawalapití. Ethnologue (2106) lists it as ""unclassified"" and related to Waurá [wau] and to Yawalapití [yaw]; for number of speakers it gives ""10 (extinct)"".""The Agavotoqëng are a tropical forest tribe who live in the Xingú park, Mato Grosso state, Brazil; their village is on the east side of the Xingú River, between the Kuluene and Kurizevo rivers. The tribe numbers fewer than 100; they speak a language similar to that of the Yawalapití, from whom they may have broken away at some earlier time. The tribe maintains isolation form other groups in the Xingú Indian Park."" (Villas Boas, Orlando and Cláudio Villas Boas. 1973. Xingú: The Indians, their Myths.)",None,Brazil;,South America,"(-13.3, -53.44)",34,Brazil,-13.3,-53.44
57,921,agx,Aghul,Agul; агъул чӀал; Ağul ç'al; агульский язык; Aghulshuy; Aguly;,Threatened,18000.0,Northeast Caucasian; Daghestanian; Lezgic,Agul; Gekxun; Koshan; Keren;,None,None,Russia;Azerbaijan;,Caucasus,"(41.7518, 47.6875)",36,Russia,41.7518,47.6875
58,921,agx,Aghul,Agul; агъул чӀал; Ağul ç'al; агульский язык; Aghulshuy; Aguly;,Threatened,18000.0,Northeast Caucasian; Daghestanian; Lezgic,Agul; Gekxun; Koshan; Keren;,None,None,Russia;Azerbaijan;,Europe,"(41.7518, 47.6875)",36,Russia,41.7518,47.6875
59,921,agx,Aghul,Agul; агъул чӀал; Ağul ç'al; агульский язык; Aghulshuy; Aguly;,Threatened,18000.0,Northeast Caucasian; Daghestanian; Lezgic,Agul; Gekxun; Koshan; Keren;,None,None,Russia;Azerbaijan;,East Asia,"(41.7518, 47.6875)",36,Russia,41.7518,47.6875
60,921,agx,Aghul,Agul; агъул чӀал; Ağul ç'al; агульский язык; Aghulshuy; Aguly;,Threatened,18000.0,Northeast Caucasian; Daghestanian; Lezgic,Agul; Gekxun; Koshan; Keren;,None,None,Russia;Azerbaijan;,Caucasus,"(41.7518, 47.6875)",36,Azerbaijan,41.7518,47.6875
61,921,agx,Aghul,Agul; агъул чӀал; Ağul ç'al; агульский язык; Aghulshuy; Aguly;,Threatened,18000.0,Northeast Caucasian; Daghestanian; Lezgic,Agul; Gekxun; Koshan; Keren;,None,None,Russia;Azerbaijan;,Europe,"(41.7518, 47.6875)",36,Azerbaijan,41.7518,47.6875
62,921,agx,Aghul,Agul; агъул чӀал; Ağul ç'al; агульский язык; Aghulshuy; Aguly;,Threatened,18000.0,Northeast Caucasian; Daghestanian; Lezgic,Agul; Gekxun; Koshan; Keren;,None,None,Russia;Azerbaijan;,East Asia,"(41.7518, 47.6875)",36,Azerbaijan,41.7518,47.6875
63,10554,aif,Agi,Metru,Endangered,670.0,Torricelli; Palei,,None,None,Papua New Guinea;,Pacific,"(-3.49, 142.39)",37,Papua New Guinea,-3.49,142.39
64,1565,agr,Aguaruna,Aguajun; Ahuajun; Awaruna; Awahun; Awajún; Aguaruna; Aents,Vulnerable,55000.0,Chicham family (Jivaroan),,None,Known to its speakers as iiniá chicham.,Peru;,South America,"(-4.3464, -77.8271)",38,Peru,-4.3464,-77.8271
65,3806,aug,Aguna,Awuna; Agunaco;,Threatened,3470.0, Kwa,,None,None,Benin;,Africa,,39,Benin,,
66,3334,wmi,Agwamin,Ak Waumin; Ak-Waumin; Egwamin; Ewamin; Gwamin; Wailoolo; Walamin; Walming; Waumin; Wawmin; Wimanja; Wommin; Wakaman; Warkaman; Warkeeman; Warkamin; Warkeemon;Wamin;,Critically Endangered,1.0,Pama-Nyungan; Paman,,"Note on Australian languages with no known speakers: For some languages, we haven't been able to confirm speaker numbers. In other cases, there isn't anyone who has grown up speaking the language, but there are still people who identify with the language, and who are working to revitalize their languages. We've chosen to include these languages in the Catalogue for this reason.",None,Australia;,Australia,"(-17.83386864, 144.2350367)",40,Australia,-17.83386864,144.2350367
67,10816,axam1237,Ahamb,Axamb; Akhamb; Akamb; naujin sdrato [nauˈtʃin sndraˈto] ‘our language’,Endangered,968.0,Austronesian; Malayo-Polynesian; Oceanic; Central Vanuatu; Southeastern Malekula,,None,None,Vanuatu;,Pacific,"(-16.517, 167.652)",41,Vanuatu,-16.517,167.652
68,3690,ahn,Àhàn,Ahaan; Ahan,Endangered,300.0, Benue-Congo; Defoid,,None,None,Nigeria;,Africa,"(7.762, 5.724)",42,Nigeria,7.762,5.724
69,761,aht,Ahtna,Ahtena; Nabesna; Tanana; Ah-tena; Atna; Copper River; Mednovskiy;,Critically Endangered,30.0,Athabaskan-Eyak-Tlingit; Athabaskan;,,None,None,USA;,North America,"(62.7547, -144.3164)",43,United States of America,62.7547,-144.3164
70,669,tba,Aikanã,Aikaná; Huarí; Warí; Masaká; Tubarão; Kasupá; Mundé; Corumbiara; Huari; Tubaro; Wari; Uari; Kolumbiara;,Vulnerable,187.5,Isolate; South American,Masaká;,None,None,Brazil;,South America,"(-12.651, -60.3918)",44,Brazil,-12.651,-60.3918
71,10552,ymo,Aiku,Yangum Mon; Malek; Menandon; Minendon; Monanda; Monandu; Umgrak-Aiku,Endangered,819.0,Torricelli; Palei,,None,None,Papua New Guinea;,Pacific,,45,Papua New Guinea,,
72,3699,ail,Aimele,Eibela; Kware;,Endangered,140.0,Trans-New Guinea; Awyu,,None,None,Papua New Guinea;,Pacific,"(-6.751896, 142.745361)",46,Papua New Guinea,-6.751896,142.745361
73,3700,aim,Aimol,Langrong; Aimal;,Endangered,2640.0,Sino-Tibetan; Kukish,Langrong;,None,None,India;,South Asia,"(24.4971, 93.6145)",47,India,24.4971,93.6145
74,3692,aic,Ainbai,,Endangered,110.0,Border; Bewani,,None,"Laycock (1973) identifies the two Ainbai-speaking villages as speaking Pagi [pgi], but Brown (1980) classifies Ainbai as a separate language.",Papua New Guinea;,Pacific,"(-3.1, 141.2)",48,Papua New Guinea,-3.1,141.2
75,3691,aib,Ainu (China),Aynu; Aini; Abdal; Eynu; Äynu; 艾努語,Threatened,12000.0,Turkic; Central Asian Turkic,,None,None,China;,East Asia,"(43.843, 87.633)",49,China,43.843,87.633
76,3691,aib,Ainu (China),Aynu; Aini; Abdal; Eynu; Äynu; 艾努語,Threatened,12000.0,Turkic; Central Asian Turkic,,None,None,China;,East Asia,"(37.887, 77.417)",49,China,37.887,77.417
77,3691,aib,Ainu (China),Aynu; Aini; Abdal; Eynu; Äynu; 艾努語,Threatened,12000.0,Turkic; Central Asian Turkic,,None,None,China;,East Asia,"(37.164, 79.941)",49,China,37.164,79.941
78,1212,ain,Ainu (Japan),Ainu Itak; Aynu itak; Kurili; アイヌ　イタㇰ; アイヌ語; ,Critically Endangered,2.0,Isolate,Hokkaido; Taraika; Sakhalin; Kuril,None,None,Japan;,East Asia,"(47.3983, 142.2949)",50,Japan,47.3983,142.2949
79,10644,aki,Aiome,Ayom,Endangered,620.0,Lower Sepik-Ramu; Ramu; Middle Ramu,,None,None,Papua New Guinea;,Pacific,"(-5.13, 144.76)",51,Papua New Guinea,-5.13,144.76
80,10330,mmq,Aisi,Musak; Green Miao; Blue Miao; Red Miao; White Miao;,Endangered,250.0,Trans-New Guinea; Madang,,None,None,Papua New Guinea;,Pacific,"(-5.405093, 145.175755)",52,Papua New Guinea,-5.405093,145.175755
81,10349,nfl,Äiwoo,Reef; Ayiwo; Naaude; Aiwo; Gnivo; Nivo; Nifilole; Lomlom; Reef Islands; Reefs; Äiwo; Aïwo; Reef Islands-Santa Cruz Sub-Family,Vulnerable,7926.0,Austronesian; Malayo-Polynesian; Oceanic; Temotu,,"Although children are still learning Äiwoo, the language is in danger from rising sea levels. Speakers may need to move to Santa Cruz or Honiara to survive in the longer term, leading to an increase in the use of Pijin, and potentially the disappearance of the Äiwoo language.",None,Solomon Islands;,Pacific,"(-10.303377, 166.306967)",53,Solomon Islands,-10.303377,166.306967
82,3703,aja,Aja,Ajja; Adja;,Endangered,200.0,Kresh-Aja,,None,None,Sudan;,Africa,"(8.6136, 25.2465)",54,Sudan,8.6136,25.2465
83,8889,muc,Ajumbu,Mbu',Endangered,250.0, Benue-Congo; Southern Bantoid,,None,None,Cameroon;,Africa,,55,Cameroon,,
84,1269,akq,Ak,,Severely Endangered,80.0,Sepik; Yellow River,,None,None,Papua New Guinea;,Pacific,"(-3.6093, 141.6604)",56,Papua New Guinea,-3.6093,141.6604
85,651,knj,Akateko,"Acatec; Kanjobal (Western); Kanjobal, Western; Acateco; Acatec; San Miguel Acatán Kanjobal; Conob; Western Kanjobal; Western Q'anjob'al; Kanjobal de San Miguel Acatán;",Threatened,5572.0,Mayan; Q'anjob'alan-Chujean,,None,None,Guatemala;Mexico;,Mexico,"(15.8333333333, -91.8333333333)",60,Guatemala,15.8333333333,-91.8333333333
86,651,knj,Akateko,"Acatec; Kanjobal (Western); Kanjobal, Western; Acateco; Acatec; San Miguel Acatán Kanjobal; Conob; Western Kanjobal; Western Q'anjob'al; Kanjobal de San Miguel Acatán;",Threatened,5572.0,Mayan; Q'anjob'alan-Chujean,,None,None,Guatemala;Mexico;,Central America,"(15.8333333333, -91.8333333333)",60,Guatemala,15.8333333333,-91.8333333333
87,651,knj,Akateko,"Acatec; Kanjobal (Western); Kanjobal, Western; Acateco; Acatec; San Miguel Acatán Kanjobal; Conob; Western Kanjobal; Western Q'anjob'al; Kanjobal de San Miguel Acatán;",Threatened,5572.0,Mayan; Q'anjob'alan-Chujean,,None,None,Guatemala;Mexico;,Caribbean,"(15.8333333333, -91.8333333333)",60,Guatemala,15.8333333333,-91.8333333333
88,651,knj,Akateko,"Acatec; Kanjobal (Western); Kanjobal, Western; Acateco; Acatec; San Miguel Acatán Kanjobal; Conob; Western Kanjobal; Western Q'anjob'al; Kanjobal de San Miguel Acatán;",Threatened,5572.0,Mayan; Q'anjob'alan-Chujean,,None,None,Guatemala;Mexico;,Mexico,"(15.8333333333, -91.8333333333)",60,Mexico,15.8333333333,-91.8333333333
89,651,knj,Akateko,"Acatec; Kanjobal (Western); Kanjobal, Western; Acateco; Acatec; San Miguel Acatán Kanjobal; Conob; Western Kanjobal; Western Q'anjob'al; Kanjobal de San Miguel Acatán;",Threatened,5572.0,Mayan; Q'anjob'alan-Chujean,,None,None,Guatemala;Mexico;,Central America,"(15.8333333333, -91.8333333333)",60,Mexico,15.8333333333,-91.8333333333
90,651,knj,Akateko,"Acatec; Kanjobal (Western); Kanjobal, Western; Acateco; Acatec; San Miguel Acatán Kanjobal; Conob; Western Kanjobal; Western Q'anjob'al; Kanjobal de San Miguel Acatán;",Threatened,5572.0,Mayan; Q'anjob'alan-Chujean,,None,None,Guatemala;Mexico;,Caribbean,"(15.8333333333, -91.8333333333)",60,Mexico,15.8333333333,-91.8333333333
91,3698,aik,Ake,Aike; Akye;,Vulnerable,2000.0, Benue-Congo; Plateau,,None,None,Nigeria;,Africa,"(8.94748, 8.835342)",61,Nigeria,8.94748,8.835342
92,3597,aeu,Akeu,Aki; Akui; 阿克,Threatened,5000.0,Sino-Tibetan; Lolo-Burmese,,None,None,China;Myanmar;Thailand;,Southeast Asia,"(21.5833, 101.0166)",62,China,21.5833,101.0166
93,3597,aeu,Akeu,Aki; Akui; 阿克,Threatened,5000.0,Sino-Tibetan; Lolo-Burmese,,None,None,China;Myanmar;Thailand;,East Asia,"(21.5833, 101.0166)",62,China,21.5833,101.0166
94,3597,aeu,Akeu,Aki; Akui; 阿克,Threatened,5000.0,Sino-Tibetan; Lolo-Burmese,,None,None,China;Myanmar;Thailand;,Southeast Asia,"(21.5833, 101.0166)",62,Myanmar,21.5833,101.0166
95,3597,aeu,Akeu,Aki; Akui; 阿克,Threatened,5000.0,Sino-Tibetan; Lolo-Burmese,,None,None,China;Myanmar;Thailand;,East Asia,"(21.5833, 101.0166)",62,Myanmar,21.5833,101.0166
96,3597,aeu,Akeu,Aki; Akui; 阿克,Threatened,5000.0,Sino-Tibetan; Lolo-Burmese,,None,None,China;Myanmar;Thailand;,Southeast Asia,"(21.5833, 101.0166)",62,Thailand,21.5833,101.0166
97,3597,aeu,Akeu,Aki; Akui; 阿克,Threatened,5000.0,Sino-Tibetan; Lolo-Burmese,,None,None,China;Myanmar;Thailand;,East Asia,"(21.5833, 101.0166)",62,Thailand,21.5833,101.0166
98,941,akv,Akhvakh,Axvax; Ашвaлъи мицIи; авахский язык; Akhwakh,Threatened,5000.0,Northeast Caucasian; Daghestanian; Andic,Kaxib;,"The Akhvakh language belongs to the Andi subgroup of the Avar-Ando-Dido or northwestern group of the Dagestan languages and is divided into two dialects: North-Akhvakh and South-Akhvakh. The first is homogeneous, while the latter is further divided into the Tlyanub and Tsegob subdialects. The difference between the South-Avar and North-Avar is rather considerable and users of the two dialects prefer communicating in the Avar language. (The Red Book of the Peoples of the Russian Empire, 2008)",None,Russia;,Caucasus,"(42.472, 46.3238)",63,Russia,42.472,46.3238
99,941,akv,Akhvakh,Axvax; Ашвaлъи мицIи; авахский язык; Akhwakh,Threatened,5000.0,Northeast Caucasian; Daghestanian; Andic,Kaxib;,"The Akhvakh language belongs to the Andi subgroup of the Avar-Ando-Dido or northwestern group of the Dagestan languages and is divided into two dialects: North-Akhvakh and South-Akhvakh. The first is homogeneous, while the latter is further divided into the Tlyanub and Tsegob subdialects. The difference between the South-Avar and North-Avar is rather considerable and users of the two dialects prefer communicating in the Avar language. (The Red Book of the Peoples of the Russian Empire, 2008)",None,Russia;,Europe,"(42.472, 46.3238)",63,Russia,42.472,46.3238
100,941,akv,Akhvakh,Axvax; Ашвaлъи мицIи; авахский язык; Akhwakh,Threatened,5000.0,Northeast Caucasian; Daghestanian; Andic,Kaxib;,"The Akhvakh language belongs to the Andi subgroup of the Avar-Ando-Dido or northwestern group of the Dagestan languages and is divided into two dialects: North-Akhvakh and South-Akhvakh. The first is homogeneous, while the latter is further divided into the Tlyanub and Tsegob subdialects. The difference between the South-Avar and North-Avar is rather considerable and users of the two dialects prefer communicating in the Avar language. (The Red Book of the Peoples of the Russian Empire, 2008)",None,Russia;,East Asia,"(42.472, 46.3238)",63,Russia,42.472,46.3238
101,942,sia,Akkala Saami,Ahkkil; Babino Saami; Akkalansaame; ču´kksuâlis; бабинский саамский язык; Аккала; Babinsk; Akkala Sami; ,Critically Endangered,1.0,Uralic; Saami,,None,None,Russia;,Caucasus,"(67.77447, 32.126267)",64,Russia,67.77447,32.126267
102,942,sia,Akkala Saami,Ahkkil; Babino Saami; Akkalansaame; ču´kksuâlis; бабинский саамский язык; Аккала; Babinsk; Akkala Sami; ,Critically Endangered,1.0,Uralic; Saami,,None,None,Russia;,Europe,"(67.77447, 32.126267)",64,Russia,67.77447,32.126267
103,942,sia,Akkala Saami,Ahkkil; Babino Saami; Akkalansaame; ču´kksuâlis; бабинский саамский язык; Аккала; Babinsk; Akkala Sami; ,Critically Endangered,1.0,Uralic; Saami,,None,None,Russia;,East Asia,"(67.77447, 32.126267)",64,Russia,67.77447,32.126267
104,4663,miw,Akoye,Mahigi; Akoinkake; Lohiki; Obi; Mai-Hea-Ri; Maihiri; Angoya; Akoyi; Maiheari;,Endangered,800.0,Trans-New Guinea; Angan,,None,None,Papua New Guinea;,Pacific,"(-7.814405, 145.675964)",65,Papua New Guinea,-7.814405,145.675964
105,4663,miw,Akoye,Mahigi; Akoinkake; Lohiki; Obi; Mai-Hea-Ri; Maihiri; Angoya; Akoyi; Maiheari;,Endangered,800.0,Trans-New Guinea; Angan,,None,None,Papua New Guinea;,Pacific,"(-7.963272, 145.775442)",65,Papua New Guinea,-7.963272,145.775442
106,537,aku,Akum,Anyar; Okum;,Endangered,600.0, Benue-Congo; Jukunoid; Yukuben-Kuteb,,None,None,Nigeria;Cameroon;,Africa,"(6.73, 9.9316)",66,Nigeria,6.73,9.9316
107,537,aku,Akum,Anyar; Okum;,Endangered,600.0, Benue-Congo; Jukunoid; Yukuben-Kuteb,,None,None,Nigeria;Cameroon;,Africa,"(6.73, 9.9316)",66,Cameroon,6.73,9.9316
108,1567,aqz,Akuntsú,Akunsu; Akunts'u,Critically Endangered,3.0,Tupian; Tuparian,,None,The Akuntsú people are survivors of a genocide promoted by the colonizers and settlers of the Southeastern region of Rondônia during the last three decades of the 20th century. They were first contacted by the National Foundation of Indians of Brazil (FUNAI) only in 1995.,Brazil;,South America,"(-10.9, -63.6)",67,Brazil,-10.9,-63.6
109,6998,syy,Al-Sayyid Bedouin Sign Language,ABSL,Endangered,150.0,Sign Language; Near Eastern,,None,None,Israel;,Near East,"(30.377614, 34.886169)",69,Israel,30.377614,34.886169
110,670,akz,Alabama,Alibamu;,Endangered,275.0,Muskogean,,None,None,USA;,North America,"(30.7158, -94.7028)",70,United States of America,30.7158,-94.7028
111,943,nog-tat,Alabugat Tatar,Nogai-Tatar; Tatar-Noghay; Alabugat Tatar-Nogai; ,Threatened,400.0,Turkic; Kipchak,Nogay,"Outlying dialect of Nogay with deep influences from Tartar and other Turkic languages, in particular, Kalmyk.",None,Russia;,Caucasus,"(43.59, 46.66)",71,Russia,43.59,46.66
112,943,nog-tat,Alabugat Tatar,Nogai-Tatar; Tatar-Noghay; Alabugat Tatar-Nogai; ,Threatened,400.0,Turkic; Kipchak,Nogay,"Outlying dialect of Nogay with deep influences from Tartar and other Turkic languages, in particular, Kalmyk.",None,Russia;,Europe,"(43.59, 46.66)",71,Russia,43.59,46.66
113,943,nog-tat,Alabugat Tatar,Nogai-Tatar; Tatar-Noghay; Alabugat Tatar-Nogai; ,Threatened,400.0,Turkic; Kipchak,Nogay,"Outlying dialect of Nogay with deep influences from Tartar and other Turkic languages, in particular, Kalmyk.",None,Russia;,East Asia,"(43.59, 46.66)",71,Russia,43.59,46.66
114,8195,ala,Alago,Aragu; Arago; Argo; Idoma Nokwu;,Vulnerable,15000.0, Benue-Congo; Idomoid,Agwatashi; Keana; Doma; Assaikio;,None,None,Nigeria;,Africa,"(8.110174, 9.14293)",72,Nigeria,8.110174,9.14293
115,8195,ala,Alago,Aragu; Arago; Argo; Idoma Nokwu;,Vulnerable,15000.0, Benue-Congo; Idomoid,Agwatashi; Keana; Doma; Assaikio;,None,None,Nigeria;,Africa,"(8.492577, 8.518839)",72,Nigeria,8.492577,8.518839
116,5988,wbj,Alagwa,Alagwaisi; Alagwase; Alawa; Chasi; Asi; Wasi; Kialagwa; Wasai; Uwassi;,Threatened,10000.0,Afro-Asiatic; Cushitic; South Cushitic,,None,None,Tanzania;,Africa,"(-5.5, 35.75)",73,Tanzania,-5.5,35.75
117,10616,amp,Alamblak,Arambak,Threatened,1200.0,Sepik; Sepik Hill; Eastern Sepik Hill,Karawari; Kuvenmas,None,None,Papua New Guinea;,Pacific,"(-4.66, 143.32)",74,Papua New Guinea,-4.66,143.32
118,3832,alh,Alawa,Alaua; Allaura; Allawa; Allowa; Allowiri; Allua; Alowa; Galawa; Galleewo; Kallana; Kallaua; Leealowa; Warliburru;,Critically Endangered,17.0,Gunwinyguan; Maran,,None,None,Australia;,Australia,"(-15.53391918, 134.2028228)",75,Australia,-15.53391918,134.2028228
119,8792,"sant1448, sant1450",Albarradas Zapotec,Santo Domingo Albarradas Zapotec; Zapotec; Albarradas; Zapoteco de Santo Domingo Albarradas,Threatened,5500.0,Otomanguean; Zapotecan,Santo Domingo Albarradas; San Miguel,1 of approx. 11-12 Central Zapotec languages.,"Ethnologue list 57 Zapotec languages. INALI gives 62 ""variantes"" of Zapoteco. SIL and INALI distinguish varieties of Zapotec, some of which are mutually intelligible dialects of the same language. The exact number of distinct languages is unclear. The most current linguistic research suggests approximately 18 Zapotec languages distributed in 5 major groups (language areas): (1) Northern (ca. 5 languages); (2) Central (ca. 7 languages); (3) Southern (ca. 4 languages); (4) Papabuco (1 language); (5) Western (1 language).""While there is no consensus yet as to the dialectal classification of Zapotec languages, the point to be made here is that the diversity of Zapotec languages is extremely rich."" (Pérez Báez 2011)",Mexico;,Mexico,"(17.066921, -96.20071)",76,Mexico,17.066921,-96.20071
120,8792,"sant1448, sant1450",Albarradas Zapotec,Santo Domingo Albarradas Zapotec; Zapotec; Albarradas; Zapoteco de Santo Domingo Albarradas,Threatened,5500.0,Otomanguean; Zapotecan,Santo Domingo Albarradas; San Miguel,1 of approx. 11-12 Central Zapotec languages.,"Ethnologue list 57 Zapotec languages. INALI gives 62 ""variantes"" of Zapoteco. SIL and INALI distinguish varieties of Zapotec, some of which are mutually intelligible dialects of the same language. The exact number of distinct languages is unclear. The most current linguistic research suggests approximately 18 Zapotec languages distributed in 5 major groups (language areas): (1) Northern (ca. 5 languages); (2) Central (ca. 7 languages); (3) Southern (ca. 4 languages); (4) Papabuco (1 language); (5) Western (1 language).""While there is no consensus yet as to the dialectal classification of Zapotec languages, the point to be made here is that the diversity of Zapotec languages is extremely rich."" (Pérez Báez 2011)",Mexico;,Central America,"(17.066921, -96.20071)",76,Mexico,17.066921,-96.20071
121,8792,"sant1448, sant1450",Albarradas Zapotec,Santo Domingo Albarradas Zapotec; Zapotec; Albarradas; Zapoteco de Santo Domingo Albarradas,Threatened,5500.0,Otomanguean; Zapotecan,Santo Domingo Albarradas; San Miguel,1 of approx. 11-12 Central Zapotec languages.,"Ethnologue list 57 Zapotec languages. INALI gives 62 ""variantes"" of Zapoteco. SIL and INALI distinguish varieties of Zapotec, some of which are mutually intelligible dialects of the same language. The exact number of distinct languages is unclear. The most current linguistic research suggests approximately 18 Zapotec languages distributed in 5 major groups (language areas): (1) Northern (ca. 5 languages); (2) Central (ca. 7 languages); (3) Southern (ca. 4 languages); (4) Papabuco (1 language); (5) Western (1 language).""While there is no consensus yet as to the dialectal classification of Zapotec languages, the point to be made here is that the diversity of Zapotec languages is extremely rich."" (Pérez Báez 2011)",Mexico;,Caribbean,"(17.066921, -96.20071)",76,Mexico,17.066921,-96.20071
122,4184,gah,Alekano,Gahuku; Gafuku; Gahuku-Gama; Zo'maga;,Vulnerable,25000.0,Trans-New Guinea; Kainantu-Goroka,,None,None,Papua New Guinea;,Pacific,"(-6.086192, 145.386028)",77,Papua New Guinea,-6.086192,145.386028
123,671,ale,Aleut,Unangan; Unangam Tunuu; алеутский язык; Унáҥам Тунý; Унаңан; Unanghan; Amara; Aleutian; Ungangan; Unangany; アレウト語; アリュート語; ,Endangered,85.0,Eskimo-Aleut; Aleut,"dialects: Attu (Western), Atka and Unalaska (Eastern). The present-day Aleuts are bilingual. (The Red Book of the Peoples of the Russian Empire, 2008)",None,None,Russia;USA;,Caucasus,"(54.7212, -164.4433)",78,Russia,54.7212,-164.4433
124,671,ale,Aleut,Unangan; Unangam Tunuu; алеутский язык; Унáҥам Тунý; Унаңан; Unanghan; Amara; Aleutian; Ungangan; Unangany; アレウト語; アリュート語; ,Endangered,85.0,Eskimo-Aleut; Aleut,"dialects: Attu (Western), Atka and Unalaska (Eastern). The present-day Aleuts are bilingual. (The Red Book of the Peoples of the Russian Empire, 2008)",None,None,Russia;USA;,Europe,"(54.7212, -164.4433)",78,Russia,54.7212,-164.4433
125,671,ale,Aleut,Unangan; Unangam Tunuu; алеутский язык; Унáҥам Тунý; Унаңан; Unanghan; Amara; Aleutian; Ungangan; Unangany; アレウト語; アリュート語; ,Endangered,85.0,Eskimo-Aleut; Aleut,"dialects: Attu (Western), Atka and Unalaska (Eastern). The present-day Aleuts are bilingual. (The Red Book of the Peoples of the Russian Empire, 2008)",None,None,Russia;USA;,North America,"(54.7212, -164.4433)",78,Russia,54.7212,-164.4433
126,671,ale,Aleut,Unangan; Unangam Tunuu; алеутский язык; Унáҥам Тунý; Унаңан; Unanghan; Amara; Aleutian; Ungangan; Unangany; アレウト語; アリュート語; ,Endangered,85.0,Eskimo-Aleut; Aleut,"dialects: Attu (Western), Atka and Unalaska (Eastern). The present-day Aleuts are bilingual. (The Red Book of the Peoples of the Russian Empire, 2008)",None,None,Russia;USA;,East Asia,"(54.7212, -164.4433)",78,Russia,54.7212,-164.4433
127,671,ale,Aleut,Unangan; Unangam Tunuu; алеутский язык; Унáҥам Тунý; Унаңан; Unanghan; Amara; Aleutian; Ungangan; Unangany; アレウト語; アリュート語; ,Endangered,85.0,Eskimo-Aleut; Aleut,"dialects: Attu (Western), Atka and Unalaska (Eastern). The present-day Aleuts are bilingual. (The Red Book of the Peoples of the Russian Empire, 2008)",None,None,Russia;USA;,Caucasus,"(54.7212, -164.4433)",78,United States of America,54.7212,-164.4433
128,671,ale,Aleut,Unangan; Unangam Tunuu; алеутский язык; Унáҥам Тунý; Унаңан; Unanghan; Amara; Aleutian; Ungangan; Unangany; アレウト語; アリュート語; ,Endangered,85.0,Eskimo-Aleut; Aleut,"dialects: Attu (Western), Atka and Unalaska (Eastern). The present-day Aleuts are bilingual. (The Red Book of the Peoples of the Russian Empire, 2008)",None,None,Russia;USA;,Europe,"(54.7212, -164.4433)",78,United States of America,54.7212,-164.4433
129,671,ale,Aleut,Unangan; Unangam Tunuu; алеутский язык; Унáҥам Тунý; Унаңан; Unanghan; Amara; Aleutian; Ungangan; Unangany; アレウト語; アリュート語; ,Endangered,85.0,Eskimo-Aleut; Aleut,"dialects: Attu (Western), Atka and Unalaska (Eastern). The present-day Aleuts are bilingual. (The Red Book of the Peoples of the Russian Empire, 2008)",None,None,Russia;USA;,North America,"(54.7212, -164.4433)",78,United States of America,54.7212,-164.4433
130,671,ale,Aleut,Unangan; Unangam Tunuu; алеутский язык; Унáҥам Тунý; Унаңан; Unanghan; Amara; Aleutian; Ungangan; Unangany; アレウト語; アリュート語; ,Endangered,85.0,Eskimo-Aleut; Aleut,"dialects: Attu (Western), Atka and Unalaska (Eastern). The present-day Aleuts are bilingual. (The Red Book of the Peoples of the Russian Empire, 2008)",None,None,Russia;USA;,East Asia,"(54.7212, -164.4433)",78,United States of America,54.7212,-164.4433
131,671,ale,Aleut,Unangan; Unangam Tunuu; алеутский язык; Унáҥам Тунý; Унаңан; Unanghan; Amara; Aleutian; Ungangan; Unangany; アレウト語; アリュート語; ,Endangered,85.0,Eskimo-Aleut; Aleut,"dialects: Attu (Western), Atka and Unalaska (Eastern). The present-day Aleuts are bilingual. (The Red Book of the Peoples of the Russian Empire, 2008)",None,None,Russia;USA;,Caucasus,"(52.2304, -174.1978)",78,Russia,52.2304,-174.1978
132,671,ale,Aleut,Unangan; Unangam Tunuu; алеутский язык; Унáҥам Тунý; Унаңан; Unanghan; Amara; Aleutian; Ungangan; Unangany; アレウト語; アリュート語; ,Endangered,85.0,Eskimo-Aleut; Aleut,"dialects: Attu (Western), Atka and Unalaska (Eastern). The present-day Aleuts are bilingual. (The Red Book of the Peoples of the Russian Empire, 2008)",None,None,Russia;USA;,Europe,"(52.2304, -174.1978)",78,Russia,52.2304,-174.1978
133,671,ale,Aleut,Unangan; Unangam Tunuu; алеутский язык; Унáҥам Тунý; Унаңан; Unanghan; Amara; Aleutian; Ungangan; Unangany; アレウト語; アリュート語; ,Endangered,85.0,Eskimo-Aleut; Aleut,"dialects: Attu (Western), Atka and Unalaska (Eastern). The present-day Aleuts are bilingual. (The Red Book of the Peoples of the Russian Empire, 2008)",None,None,Russia;USA;,North America,"(52.2304, -174.1978)",78,Russia,52.2304,-174.1978
134,671,ale,Aleut,Unangan; Unangam Tunuu; алеутский язык; Унáҥам Тунý; Унаңан; Unanghan; Amara; Aleutian; Ungangan; Unangany; アレウト語; アリュート語; ,Endangered,85.0,Eskimo-Aleut; Aleut,"dialects: Attu (Western), Atka and Unalaska (Eastern). The present-day Aleuts are bilingual. (The Red Book of the Peoples of the Russian Empire, 2008)",None,None,Russia;USA;,East Asia,"(52.2304, -174.1978)",78,Russia,52.2304,-174.1978
135,671,ale,Aleut,Unangan; Unangam Tunuu; алеутский язык; Унáҥам Тунý; Унаңан; Unanghan; Amara; Aleutian; Ungangan; Unangany; アレウト語; アリュート語; ,Endangered,85.0,Eskimo-Aleut; Aleut,"dialects: Attu (Western), Atka and Unalaska (Eastern). The present-day Aleuts are bilingual. (The Red Book of the Peoples of the Russian Empire, 2008)",None,None,Russia;USA;,Caucasus,"(52.2304, -174.1978)",78,United States of America,52.2304,-174.1978
136,671,ale,Aleut,Unangan; Unangam Tunuu; алеутский язык; Унáҥам Тунý; Унаңан; Unanghan; Amara; Aleutian; Ungangan; Unangany; アレウト語; アリュート語; ,Endangered,85.0,Eskimo-Aleut; Aleut,"dialects: Attu (Western), Atka and Unalaska (Eastern). The present-day Aleuts are bilingual. (The Red Book of the Peoples of the Russian Empire, 2008)",None,None,Russia;USA;,Europe,"(52.2304, -174.1978)",78,United States of America,52.2304,-174.1978
137,671,ale,Aleut,Unangan; Unangam Tunuu; алеутский язык; Унáҥам Тунý; Унаңан; Unanghan; Amara; Aleutian; Ungangan; Unangany; アレウト語; アリュート語; ,Endangered,85.0,Eskimo-Aleut; Aleut,"dialects: Attu (Western), Atka and Unalaska (Eastern). The present-day Aleuts are bilingual. (The Red Book of the Peoples of the Russian Empire, 2008)",None,None,Russia;USA;,North America,"(52.2304, -174.1978)",78,United States of America,52.2304,-174.1978
138,671,ale,Aleut,Unangan; Unangam Tunuu; алеутский язык; Унáҥам Тунý; Унаңан; Unanghan; Amara; Aleutian; Ungangan; Unangany; アレウト語; アリュート語; ,Endangered,85.0,Eskimo-Aleut; Aleut,"dialects: Attu (Western), Atka and Unalaska (Eastern). The present-day Aleuts are bilingual. (The Red Book of the Peoples of the Russian Empire, 2008)",None,None,Russia;USA;,East Asia,"(52.2304, -174.1978)",78,United States of America,52.2304,-174.1978
139,10642,"afk, afp",Alfendio,Arafundi; Nanubae; Aunda; Kapagmai; Tapei; Imboin; Lower Arafundi; Upper Arafundi,Endangered,633.0,Arafundi,,None,"The Arafundi languages are closely related, possibly forming a dialect chain.  In the Catalogue they are classified as three languages, but this is not the only possible categorization.Ethnologue (18th edition) includes two entries that correspond to what Laycock (1973) identifies as Alfendio: Nanubae [afk] and Tapei [afp].",Papua New Guinea;,Pacific,"(-4.75, 143.64)",79,Papua New Guinea,-4.75,143.64
140,944,cat-alg,Algherese Catalan,,Vulnerable,25000.0,Indo-European; Italic; Romance; Western Romance,Catalan,"An outlying dialect of Catalan, spoken in the northwest of Sardinia.  It has been spoken in the area since  Catalan invaders repopulated the city of Alghero (L'Alguer in Catalan) after expelling the indigenous Sardinian population in 1372 AD.",None,Italy;,Europe,"(40.564318, 8.328667)",80,Italy,40.564318,8.328667
141,3833,all,Allar,Alan; Alanmar; Alar; Allan; Chatans,Endangered,350.0,Dravidian; South-Central Dravidian,,None,None,India;,South Asia,"(11.108169, 76.166224)",82,India,11.108169,76.166224
142,3693,aid,Alngith,Alngidh; Alingid; Laynngithy; Lengiti; Lenngiti; Alngid; Limrett; Laynngith; Winduwinda; Alingit; Alŋit̯; Laynŋit̯;,Critically Endangered,3.0,Pama-Nyungan; Paman,,"Note on Australian languages with no known speakers: For some languages, we haven't been able to confirm speaker numbers. In other cases, there isn't anyone who has grown up speaking the language, but there are still people who identify with the language, and who are working to revitalize their languages. We've chosen to include these languages in the Catalogue for this reason.",None,Australia;,Australia,"(-12.57310489, 141.8691543)",83,Australia,-12.57310489,141.8691543
143,8114,qvm,Alto Marañón Quechua,Margos-Yarowilca-Lauricocha Quechua; Margos-Yarowilca-Lauricocha Quechua; Upper Marañón Quechua,Vulnerable,83400.0,Quechuan; Quechua I,,None,"The question of how to distinguish between entities that are dialects of a single language vs. those that are separate languages is particularly serious in the case of Quechuan languages and dialects, and much work remains to be done. Though it is well-known and very clear that there are a number of distinct languages in the Quechuan complex, some very distinct, the tendency to consider them all merely dialects of “Quechua” persists in many circles. (Cerrón-Palomino 1987.)Alto Marañón Quechua [qvm] is sometimes listed as an alternate name of Alto Huallaga [qub], as both are Ap-am-ah Central Quechuan languages. However, according to some linguists the two are different languages, and according to others they are dialectsThis area corresponds to the Upper Marañón Valley in southwestern Huánuco; this variant should be close to Huallaga (Huánuco) Quechua (Willem Adelaar personal communication).",Peru;,South America,"(-9.932, -76.242)",85,Peru,-9.932,-76.242
144,10547,dia,Alu,Dia; Galu; Metru; Sinagen,Threatened,1880.0,Torricelli; Wapei,,None,None,Papua New Guinea;,Pacific,"(-3.39, 142.25)",86,Papua New Guinea,-3.39,142.25
145,3567,xua,Alu Kurumba,"Alu Kurumba Nonstandard Kannada; Pal Kurumba; Hal Kurumba; Kurumba, Alu",Threatened,1000.0,Dravidian; South Dravidian,,None,None,India;,South Asia,"(11.35, 76.8)",87,India,11.35,76.8
146,1329,alp,Alune,Sapalewa; Patasiwa Alfoeren;,Vulnerable,12000.0,Austronesian; Malayo-Polynesian; Central Maluku; Nunusaku,Kairatu; North Coastal Alune; Central West Alune; South Alune; Central East Alune;,None,None,Indonesia;,Southeast Asia,"(-3.0637, 128.3752)",88,Indonesia,-3.0637,128.3752
147,7249,yna,Aluo,阿羅語; Ala; Naluo; Yala; Lila; Laka; Gan Yi,Endangered,40000.0,Sino-Tibetan; Lolo-Burmese,,None,None,China;,East Asia,"(25.9368, 102.1839)",89,China,25.9368,102.1839
148,672,ems,Alutiiq,"Sugpiaq; Pacific Gulf Yupik;; Sugpiak; ""Eskimo""; Chugach ""Eskimo""; Koniag-Chugach; Suk; Sugcestun; South Alaska ""Eskimo""; Yupik (Pacific Gulf ); šuk/suk Sugpiaq; ""Aleut""; アリュティーク語;",Severely Endangered,200.0,Eskimo-Aleut; Eskimo; Yupik,"Koniag, Chugach",None,None,USA;,North America,"(57.793056, -152.394167)",90,United States of America,57.793056,-152.394167
149,947,alr,Alutor,Alyutor; Алюторский язык; nəməlʔu; Aliutor; Olyutor;,Severely Endangered,2000.0,Chukotko-Kamchatkan; Chukotkan,Alutorskij (Alutor); Karaginskij (Koryak); Palanskij (Palana);,None,None,Russia;,Caucasus,"(60.2016, 165.4238)",91,Russia,60.2016,165.4238
150,947,alr,Alutor,Alyutor; Алюторский язык; nəməlʔu; Aliutor; Olyutor;,Severely Endangered,2000.0,Chukotko-Kamchatkan; Chukotkan,Alutorskij (Alutor); Karaginskij (Koryak); Palanskij (Palana);,None,None,Russia;,Europe,"(60.2016, 165.4238)",91,Russia,60.2016,165.4238
151,947,alr,Alutor,Alyutor; Алюторский язык; nəməlʔu; Aliutor; Olyutor;,Severely Endangered,2000.0,Chukotko-Kamchatkan; Chukotkan,Alutorskij (Alutor); Karaginskij (Koryak); Palanskij (Palana);,None,None,Russia;,East Asia,"(60.2016, 165.4238)",91,Russia,60.2016,165.4238
152,5249,aly,Alyawarr,Alyawarra; Alyawarre; Aljawara; Iliaura; Yowera; Illiaura; Iljaura; Ilyuarra; Illyowra; Aliawara; Aliwara; Alja:wara; Yalyuwara; Alyawara; Jaljuwara; Ilawara; Ilja:wara; Iljauara; Iljawara; Illaura; Illura; Iloura; Ilyauarra; Ilyaurra; Ilyawara; Ilyowra; Ilywara;,Vulnerable,1664.0,Pama-Nyungan; Arandic,,None,None,Australia;,Australia,"(-22.29152242, 135.9637093)",93,Australia,-22.29152242,135.9637093
153,10662,amm,Ama,Sawiyanu; Waniabu; Neinbonei,Vulnerable,450.0,Left May,,None,None,Papua New Guinea;,Pacific,"(-4.2, 141.66)",94,Papua New Guinea,-4.2,141.66
154,1330,amq,Amahai,Amahei,Critically Endangered,50.0,Austronesian; Malayo-Polynesian; Central Maluku; Nunusaku,Makariki; Rutah; Soahuku,None,None,Indonesia;,Southeast Asia,"(-3.3352, 128.9314)",95,Indonesia,-3.3352,128.9314
155,10582,aad,Amal,Amel; Alai,Endangered,388.0,Sepik,,None,None,Papua New Guinea;,Pacific,"(-4.05, 142.0)",97,Papua New Guinea,-4.05,142.0
156,10377,"kzg, xug, ryn, okn, ams, tkn, yox",Amami,Kikai; Kunigami; Northern Amami-Oshima; Oki-no-Erabu; Southern Amami-Oshima; Toku-no-Shima; Yoron; Ryukyuan; Oshima; Osima; Oosima; Northern Ryukyuan; Amami-Osima; Okinoerabu; Okierabu; Tokunosima; 奄美語; 奄美方言; 国頭語; 国頭方言; Shimayumuta; 島口; シマユムタ;,Severely Endangered,37000.0,Japonic; Ryukyuan; Northern Ryukyuan,Onotsu; Nago; Sani; Naze; West Oki-No-Erabu; East Oki-No-Erabu; Kametsu ,None,"Pellard (2015), whose classification is used here, considers Okinawan and Amami to be separate. According to Niinaga (2015), Northern Okinawan dialects are grouped together with Amami dialects. According to other analyses, the Amami language consists of Kikai (kzg), Kunigami (xug), Northern Amami-Oshima (ryn), Oki-no-Erabu (okn), Southern Amami-Oshima (ams), Toku-no-Shima (tkn), and Yoron (yox).",Japan;,East Asia,"(28.31, 129.982)",98,Japan,28.31,129.982
157,10377,"kzg, xug, ryn, okn, ams, tkn, yox",Amami,Kikai; Kunigami; Northern Amami-Oshima; Oki-no-Erabu; Southern Amami-Oshima; Toku-no-Shima; Yoron; Ryukyuan; Oshima; Osima; Oosima; Northern Ryukyuan; Amami-Osima; Okinoerabu; Okierabu; Tokunosima; 奄美語; 奄美方言; 国頭語; 国頭方言; Shimayumuta; 島口; シマユムタ;,Severely Endangered,37000.0,Japonic; Ryukyuan; Northern Ryukyuan,Onotsu; Nago; Sani; Naze; West Oki-No-Erabu; East Oki-No-Erabu; Kametsu ,None,"Pellard (2015), whose classification is used here, considers Okinawan and Amami to be separate. According to Niinaga (2015), Northern Okinawan dialects are grouped together with Amami dialects. According to other analyses, the Amami language consists of Kikai (kzg), Kunigami (xug), Northern Amami-Oshima (ryn), Oki-no-Erabu (okn), Southern Amami-Oshima (ams), Toku-no-Shima (tkn), and Yoron (yox).",Japan;,East Asia,"(27.3738, 128.619)",98,Japan,27.3738,128.619
158,10377,"kzg, xug, ryn, okn, ams, tkn, yox",Amami,Kikai; Kunigami; Northern Amami-Oshima; Oki-no-Erabu; Southern Amami-Oshima; Toku-no-Shima; Yoron; Ryukyuan; Oshima; Osima; Oosima; Northern Ryukyuan; Amami-Osima; Okinoerabu; Okierabu; Tokunosima; 奄美語; 奄美方言; 国頭語; 国頭方言; Shimayumuta; 島口; シマユムタ;,Severely Endangered,37000.0,Japonic; Ryukyuan; Northern Ryukyuan,Onotsu; Nago; Sani; Naze; West Oki-No-Erabu; East Oki-No-Erabu; Kametsu ,None,"Pellard (2015), whose classification is used here, considers Okinawan and Amami to be separate. According to Niinaga (2015), Northern Okinawan dialects are grouped together with Amami dialects. According to other analyses, the Amami language consists of Kikai (kzg), Kunigami (xug), Northern Amami-Oshima (ryn), Oki-no-Erabu (okn), Southern Amami-Oshima (ams), Toku-no-Shima (tkn), and Yoron (yox).",Japan;,East Asia,"(28.1955, 129.285)",98,Japan,28.1955,129.285
159,10377,"kzg, xug, ryn, okn, ams, tkn, yox",Amami,Kikai; Kunigami; Northern Amami-Oshima; Oki-no-Erabu; Southern Amami-Oshima; Toku-no-Shima; Yoron; Ryukyuan; Oshima; Osima; Oosima; Northern Ryukyuan; Amami-Osima; Okinoerabu; Okierabu; Tokunosima; 奄美語; 奄美方言; 国頭語; 国頭方言; Shimayumuta; 島口; シマユムタ;,Severely Endangered,37000.0,Japonic; Ryukyuan; Northern Ryukyuan,Onotsu; Nago; Sani; Naze; West Oki-No-Erabu; East Oki-No-Erabu; Kametsu ,None,"Pellard (2015), whose classification is used here, considers Okinawan and Amami to be separate. According to Niinaga (2015), Northern Okinawan dialects are grouped together with Amami dialects. According to other analyses, the Amami language consists of Kikai (kzg), Kunigami (xug), Northern Amami-Oshima (ryn), Oki-no-Erabu (okn), Southern Amami-Oshima (ams), Toku-no-Shima (tkn), and Yoron (yox).",Japan;,East Asia,"(27.7736, 128.961)",98,Japan,27.7736,128.961
160,10377,"kzg, xug, ryn, okn, ams, tkn, yox",Amami,Kikai; Kunigami; Northern Amami-Oshima; Oki-no-Erabu; Southern Amami-Oshima; Toku-no-Shima; Yoron; Ryukyuan; Oshima; Osima; Oosima; Northern Ryukyuan; Amami-Osima; Okinoerabu; Okierabu; Tokunosima; 奄美語; 奄美方言; 国頭語; 国頭方言; Shimayumuta; 島口; シマユムタ;,Severely Endangered,37000.0,Japonic; Ryukyuan; Northern Ryukyuan,Onotsu; Nago; Sani; Naze; West Oki-No-Erabu; East Oki-No-Erabu; Kametsu ,None,"Pellard (2015), whose classification is used here, considers Okinawan and Amami to be separate. According to Niinaga (2015), Northern Okinawan dialects are grouped together with Amami dialects. According to other analyses, the Amami language consists of Kikai (kzg), Kunigami (xug), Northern Amami-Oshima (ryn), Oki-no-Erabu (okn), Southern Amami-Oshima (ams), Toku-no-Shima (tkn), and Yoron (yox).",Japan;,East Asia,"(27.0407, 128.428)",98,Japan,27.0407,128.428
161,10670,amn,Amanab,,Threatened,3500.0,Border; Waris,Northern; Western; Eastern,None,None,Indonesia;Papua New Guinea;,Southeast Asia,"(-3.55, 141.18)",99,Indonesia,-3.55,141.18
162,10670,amn,Amanab,,Threatened,3500.0,Border; Waris,Northern; Western; Eastern,None,None,Indonesia;Papua New Guinea;,Pacific,"(-3.55, 141.18)",99,Indonesia,-3.55,141.18
163,10670,amn,Amanab,,Threatened,3500.0,Border; Waris,Northern; Western; Eastern,None,None,Indonesia;Papua New Guinea;,Southeast Asia,"(-3.55, 141.18)",99,Papua New Guinea,-3.55,141.18
164,10670,amn,Amanab,,Threatened,3500.0,Border; Waris,Northern; Western; Eastern,None,None,Indonesia;Papua New Guinea;,Pacific,"(-3.55, 141.18)",99,Papua New Guinea,-3.55,141.18
165,3694,aie,Amara,Longa; Bibling,Endangered,231.0,Austronesian; Malayo-Polynesian; Oceanic; North New Guinea,,None,"""... [T]here are two alternate names for the Amara language, Longa and Bibling. Though the Amara people recognize those names, they reported that they prefer their language to be called Amara."" (Carter, et al. 2012)",Papua New Guinea;,Pacific,"(-5.51655, 148.765182)",101,Papua New Guinea,-5.51655,148.765182
166,3694,aie,Amara,Longa; Bibling,Endangered,231.0,Austronesian; Malayo-Polynesian; Oceanic; North New Guinea,,None,"""... [T]here are two alternate names for the Amara language, Longa and Bibling. Though the Amara people recognize those names, they reported that they prefer their language to be called Amara."" (Carter, et al. 2012)",Papua New Guinea;,Pacific,"(-5.48511, 148.676949)",101,Papua New Guinea,-5.48511,148.676949
167,3694,aie,Amara,Longa; Bibling,Endangered,231.0,Austronesian; Malayo-Polynesian; Oceanic; North New Guinea,,None,"""... [T]here are two alternate names for the Amara language, Longa and Bibling. Though the Amara people recognize those names, they reported that they prefer their language to be called Amara."" (Carter, et al. 2012)",Papua New Guinea;,Pacific,"(-5.533295, 148.588715)",101,Papua New Guinea,-5.533295,148.588715
168,9171,aaz,Amarasi,Timor Amarasi;,Vulnerable,70000.0,Austronesian; Malayo-Polynesian; Timor,Ro'is Hero (Kopa); Ro'is; Kotos; Ro'is Tais Nonof;,"Part of Uab Meto language chain. Similar to Uab Meto [aoz], but with differences in phonology, vocabulary, and discourse, with semantic shifts, structural differences, intelligibility problems. Ro'is Tais Nonof dialect has intonation like Ro'is dialect, vocabulary like Kotos dialect. Southwest tip of Timor Island. 80 villages. Kotos is central and east, Ro'is is west, Ro'is Tais Nonof is south, Ro'is Hero surrounded by Helong.",None,Indonesia;,Southeast Asia,,102,Indonesia,,
169,10639,aew,Ambakich,Aion; Porapora,Endangered,770.0,Lower Sepik-Ramu; Ramu; Grass,Northern; Southern,None,None,Papua New Guinea;,Pacific,"(-4.2, 144.25)",104,Papua New Guinea,-4.2,144.25
170,6310,ael,Ambele,Tinta; Ambala; Bata'o; Lembala; Tentwa';,Vulnerable,3600.0, Benue-Congo; Southern Bantoid,,None,"Alternate names are self-reported by Ambele-speaking people according to Ayotte and Ayotte, 2002.",Cameroon;,Africa,"(5.868, 9.765)",105,Cameroon,5.868,9.765
171,10606,"abt, wos",Ambulas,Abelam; Abulas; Ambelas; Hanga Hundi; Kwasengen; West Wosera,Vulnerable,33000.0,Sepik; Ndu,Wosera; West Wosera; Maprik,None,"Ethnologue (18th edition) lists separate entries for ""Ambulas"" [abt] and ""Hanga Hundi"" [wos], the latter of which is considered a dialect (called ""West Wosera"") by Laycock (1973).",Papua New Guinea;,Pacific,"(-3.78, 143.06)",106,Papua New Guinea,-3.78,143.06
172,8740,aqd,Ampari,Ampari Dogon; Ambeenge; Ampari; Pignari,Threatened,5200.0, Dogon; West Dogon,,None,None,Mali;,Africa,"(14.257728, -3.90712)",108,Mali,14.257728,-3.90712
173,1333,law-amp,Ampibabo,,Threatened,6000.0,Austronesian; Malayo-Polynesian; Celebic; Tomini-Tolitoli,,None,None,Indonesia;,Southeast Asia,,109,Indonesia,,
174,2012,amt,Amto,Ki; Siwai; Siawi; Siafli,Endangered,230.0,Amto-Musan,,None,None,Papua New Guinea;,Pacific,"(-4.052936077, 141.3284454)",110,Papua New Guinea,-4.052936077,141.3284454
175,8556,1ot,Amur Nivkh,Nivx; Gilyak; амурский нивхский язык; Nivukhi; Ghilyak; Ghiliak; Gelyak; Giriyaaku; Нивхгу диф; Ньиғвӈгун; гиляцкий язык;,Severely Endangered,500.0,Nivkh,,None,"Nivkh is often regarded as an isolate, but, like Ainu, it may also be viewed as a small family, comprising two closely related, but mutually unintelligible, languages; attempts to demonstrate the existence of a genetic connection between Nivkh and other families have not given generally accepted results.",Russia;,Caucasus,"(53.2684, 140.4107)",112,Russia,53.2684,140.4107
176,8556,1ot,Amur Nivkh,Nivx; Gilyak; амурский нивхский язык; Nivukhi; Ghilyak; Ghiliak; Gelyak; Giriyaaku; Нивхгу диф; Ньиғвӈгун; гиляцкий язык;,Severely Endangered,500.0,Nivkh,,None,"Nivkh is often regarded as an isolate, but, like Ainu, it may also be viewed as a small family, comprising two closely related, but mutually unintelligible, languages; attempts to demonstrate the existence of a genetic connection between Nivkh and other families have not given generally accepted results.",Russia;,Europe,"(53.2684, 140.4107)",112,Russia,53.2684,140.4107
177,8556,1ot,Amur Nivkh,Nivx; Gilyak; амурский нивхский язык; Nivukhi; Ghilyak; Ghiliak; Gelyak; Giriyaaku; Нивхгу диф; Ньиғвӈгун; гиляцкий язык;,Severely Endangered,500.0,Nivkh,,None,"Nivkh is often regarded as an isolate, but, like Ainu, it may also be viewed as a small family, comprising two closely related, but mutually unintelligible, languages; attempts to demonstrate the existence of a genetic connection between Nivkh and other families have not given generally accepted results.",Russia;,East Asia,"(53.2684, 140.4107)",112,Russia,53.2684,140.4107
178,1382,amg,Amurdak,Wureidbug; Amurag;  A'moordiyu; Amarak; Amardak; Amurdag; Amurrag; Amurrak; Amurtak; Amuruk; Mamurug; Monobar; Namurug; Nga:mr:rak; Nga:mu:rak; Ngamurag; Ngamurak; Umoreo; Umoriu; Umorrdak; Wardadjbak; Woraidbug;Amarag;,Critically Endangered,4.0,Iwaidjan,Gidjurra; Urrirrk;,None,None,Australia;,Australia,"(-11.149603, 132.576973)",113,Australia,-11.149603,132.576973
179,8598,anw,Anaang,Anang; Annang;,Vulnerable,733040.0, Benue-Congo; Delta Cross,Ikot Ekpene; Ukanafun; Abak;,None,None,Nigeria;,Africa,,114,Nigeria,,
180,9909,akg,Anakalangu,Anakalang,Vulnerable,25000.0,Austronesian; Malayo-Polynesian; Sumba-Hawu,,None,None,Indonesia;,Southeast Asia,"(-9.576376, 119.586182)",115,Indonesia,-9.576376,119.586182
181,4954,pda,Anam,Pondoma;,Threatened,1070.0,Trans-New Guinea; Madang,,None,None,Papua New Guinea;,Pacific,"(-4.811839, 145.008545)",117,Papua New Guinea,-4.811839,145.008545
182,5448,ajn,Andajin,Andidja;,Critically Endangered,2.0,Worrorran; Southern Worrorran,,"Note on Australian languages with no known speakers: For some languages, we haven't been able to confirm speaker numbers. In other cases, there isn't anyone who has grown up speaking the language, but there are still people who identify with the language, and who are working to revitalize their languages. We've chosen to include these languages in the Catalogue for this reason.",None,Australia;,Australia,"(-17.37660823, 126.2592854)",119,Australia,-17.37660823,126.2592854
183,10656,aod,Andarum,,Endangered,830.0,Lower Sepik-Ramu; Ramu; Ataitan,,None,None,Papua New Guinea;,Pacific,"(-4.49, 144.77)",120,Papua New Guinea,-4.49,144.77
184,10777,mrp,Ande,Morouas,Endangered,500.0,Austronesian; Malayo-Polynesian; Oceanic; Northern Vanuatu,,None,None,Vanuatu;,Pacific,,121,Vanuatu,,
185,948,ani,Andi,Qwannab; qwavannab micci; андийский язык; ანდიური ენა; къIaваннаб мицци; Andiy; Andii; Qandisel,Vulnerable,15000.0,Northeast Caucasian; Daghestanian; Andic,Munin; Gagatl; Zilo; Rikvani; Kvanxidatl;,None,None,Russia;,Caucasus,"(42.7308, 46.2963)",122,Russia,42.7308,46.2963
186,948,ani,Andi,Qwannab; qwavannab micci; андийский язык; ანდიური ენა; къIaваннаб мицци; Andiy; Andii; Qandisel,Vulnerable,15000.0,Northeast Caucasian; Daghestanian; Andic,Munin; Gagatl; Zilo; Rikvani; Kvanxidatl;,None,None,Russia;,Europe,"(42.7308, 46.2963)",122,Russia,42.7308,46.2963
187,948,ani,Andi,Qwannab; qwavannab micci; андийский язык; ანდიური ენა; къIaваннаб мицци; Andiy; Andii; Qandisel,Vulnerable,15000.0,Northeast Caucasian; Daghestanian; Andic,Munin; Gagatl; Zilo; Rikvani; Kvanxidatl;,None,None,Russia;,East Asia,"(42.7308, 46.2963)",122,Russia,42.7308,46.2963
188,1334,bzb,Andio,Masama; Andio'o; Imbao'o,Threatened,1700.0,Austronesian; Malayo-Polynesian; Celebic; Saluan-Banggai,,None,None,Indonesia;,Southeast Asia,"(-0.8514, 123.1457)",123,Indonesia,-0.8514,123.1457
189,10821,,Anejom̃,Aneityum,Endangered,900.0,Austronesian; Malayo-Polynesian; Oceanic,,None,None,Vanuatu;,Pacific,,126,Vanuatu,,
190,10806,anz,Anem,Anêm,Endangered,843.0,Isolate; Pacific,,None,"""Some hypotheses relate Anem to other languages of New Britain, especially with Pete-Ata, and the East Papuan islands based on typology or pronouns (see Dunn et al. 2005a,b, Ross 2001, Thurston 1992) but the resemblances are much too minor to conclude a genealogical relation."" (Hammarström, forthcoming)",Papua New Guinea;,Pacific,,127,Papua New Guinea,,
191,2675,myo,Anfillo,Southern Mao; Mao; South Mao; Anfilo;,Endangered,500.0,Afro-Asiatic; Omotic; Gonga,,None,None,Ethiopia;,Africa,"(8.5049, 34.7415)",128,Ethiopia,8.5049,34.7415
192,1572,aqt,Angaité,Angaite; Enenlhet; Enlit; Nempayvvoma; ,Severely Endangered,780.0,Enlhet-Enenlhet (Mascoyan),Koaklok; Koietevees; Konjanava,None,None,Paraguay;,South America,,129,Paraguay,,
193,10673,agg,Angor,Anggor; Senagi; Watapor,Threatened,1250.0,Senagi,,None,None,Papua New Guinea;,Pacific,"(-3.72, 141.2)",130,Papua New Guinea,-3.72,141.2
194,10629,"aog, myd",Angoram,Kanda; Olem; Pondo; Sepik No. 1; Tjimundo; Maramba,Threatened,6514.0,Lower Sepik-Ramu; Lower Sepik,,"Ethnologue (21st ed.) contains a separate entry for a ""Maramba"" language [myd], supposedly belonging to the Yuat family. The people of Maramba village, however, speak Angoram (aka Kanda).",None,Papua New Guinea;,Pacific,"(-4.08, 144.03)",131,Papua New Guinea,-4.08,144.03
195,3809,blo,Anii,"Gisida; Basila; Bassila; Baseca; ""Winji-Winji""; ""Ouinji-Ouinji""; Akpe;",Vulnerable,25000.0, Kwa,Ananjubi; Balanka; Akpe; Gikolodjya; Gilempla; Gisème; Giseda;,None,The preferred name of the language is Anii; other names may have derogatory connotations and should not be used. (Tompkins & Kluge 2008),Togo;Benin;,Africa,"(9.032, 1.657)",132,Togo,9.032,1.657
196,3809,blo,Anii,"Gisida; Basila; Bassila; Baseca; ""Winji-Winji""; ""Ouinji-Ouinji""; Akpe;",Vulnerable,25000.0, Kwa,Ananjubi; Balanka; Akpe; Gikolodjya; Gilempla; Gisème; Giseda;,None,The preferred name of the language is Anii; other names may have derogatory connotations and should not be used. (Tompkins & Kluge 2008),Togo;Benin;,Africa,"(9.032, 1.657)",132,Benin,9.032,1.657
197,3809,blo,Anii,"Gisida; Basila; Bassila; Baseca; ""Winji-Winji""; ""Ouinji-Ouinji""; Akpe;",Vulnerable,25000.0, Kwa,Ananjubi; Balanka; Akpe; Gikolodjya; Gilempla; Gisème; Giseda;,None,The preferred name of the language is Anii; other names may have derogatory connotations and should not be used. (Tompkins & Kluge 2008),Togo;Benin;,Africa,"(9.234, 1.554)",132,Togo,9.234,1.554
198,3809,blo,Anii,"Gisida; Basila; Bassila; Baseca; ""Winji-Winji""; ""Ouinji-Ouinji""; Akpe;",Vulnerable,25000.0, Kwa,Ananjubi; Balanka; Akpe; Gikolodjya; Gilempla; Gisème; Giseda;,None,The preferred name of the language is Anii; other names may have derogatory connotations and should not be used. (Tompkins & Kluge 2008),Togo;Benin;,Africa,"(9.234, 1.554)",132,Benin,9.234,1.554
199,3305,anf,Animere,Anyimere; Kunda;,Severely Endangered,30.0, Kwa,,None,None,Ghana;,Africa,"(7.6129, 0.4064)",133,Ghana,7.6129,0.4064
200,2025,aoi,Anindilyakwa,Amakurupa; Andilagwa; Andiljangwa; Andiljaugwa; Andiljaukwa; Andilyaugwa; Anindhilyakwa; Anindilyaugwa; Aninhdhilyagwa; Awarikpa; En Indiljaugwa; Enindhilyagwa; Enindiljaugwa; Eninhdhilyagwa; Groote Eylandt; Ingura; Lamadalpu; Wani-Ndiljaugwa; Wanindilyaugwa; Wanindilyaugwa Ingura; Warnindilyakwa;,Threatened,1500.0,Gunwinyguan; East Arnhem,,None,None,Australia;,Australia,"(-14.05312996, 136.6124148)",134,Australia,-14.05312996,136.6124148
201,3840,amx,Anmatyerre,Anmatjirra; Anmatjera; Unmatjera; Imatjera; Urmitchee; Nmatjera; Inmatjera; Anmatjara; Janmadjara; Janmatjiri; Yanmedjara; Yandmadjari;,Threatened,750.5,Pama-Nyungan; Arandic,Western Anmatyerre; Eastern Anmatyerre;,None,None,Australia;,Australia,"(-21.98277477, 133.4290339)",135,Australia,-21.98277477,133.4290339
202,10643,anj,Anor,,Endangered,450.0,Lower Sepik-Ramu; Ramu; Middle Ramu,,None,None,Papua New Guinea;,Pacific,"(-4.98, 144.8)",137,Papua New Guinea,-4.98,144.8
203,3110,ant,Antakirinya,Kadjilaranda; Madutara; Mbenderinga; Ngonde; Njuntundjara; Tangara; Untergerrie; Walarangunja; Walarenunga; Yandairunga; Aldolinga; Aluna; Andagarinja; Andagarinya; Andagirinja; Andegilliga; Andekarinja; Andgari; Andigari; Andigarina; Andigarinya; Andigiri; Andigirinji; Andingiri; Andjirigna; Andjiringna; Andrgrinji; Anjirigna; Antakarinja; Antakerinya; Antakirinja;  Antegarinya; Antekarinja; Anterrikanya; Antigari; Antigerinya; Antikarinya; Antikirinya; Antin-gari; Antakerrinya; Unterrgerrie; Anderkerinja;Antakarinya;,Severely Endangered,50.0,Pama-Nyungan; Wati,,None,None,Australia;,Australia,"(-27.05245189, 134.4007513)",138,Australia,-27.05245189,134.4007513
204,2013,aui,Anuki,Gabobora;,Threatened,574.0,Austronesian; Malayo-Polynesian; Oceanic; Papuan Tip,,None,None,Papua New Guinea;,Pacific,"(-9.6522, 149.7656)",140,Papua New Guinea,-9.6522,149.7656
205,1335,auq; anus1237,Anus,Koroernoes; Korur,Endangered,320.0,Austronesian; Malayo-Polynesian; Oceanic; North New Guinea,,None,None,Indonesia;,Southeast Asia,"(-2.1268, 139.5126)",141,Indonesia,-2.1268,139.5126
206,3851,aor,Aore,,Dormant,0.0,Austronesian; Malayo-Polynesian; Oceanic; Northern Vanuatu,,None,None,Vanuatu;,Pacific,"(-15.5767, 167.1638)",143,Vanuatu,-15.5767,167.1638
207,10637,kbx,Ap Ma,Ap Ma Botin; Botin; Kambot; Karaube; Keram,Threatened,6500.0,Isolate,Kambaramba,None,None,Papua New Guinea;,Pacific,"(-4.35, 144.09)",144,Papua New Guinea,-4.35,144.09
208,655,apy,Apalaí,Apalai; Aparai; Apalay;,Endangered,317.0,Cariban,,None,None,Brazil;,South America,"(1.2084, -55.1074)",145,Brazil,1.2084,-55.1074
209,657,apt,Apatani,Apa; Patan; Apa Tani;,Vulnerable,14000.0,Sino-Tibetan; Tani,,None,None,India;,South Asia,"(27.5228, 93.8177)",146,India,27.5228,93.8177
210,3202,apu,Apuriná,Ipuriná; Kangite; Apurinã; Ipurina; Apurinã; Ipurinãn; Popengare; Cangaiti; Cacharary,Endangered,400.0,Arawakan; Southern Arawakan; Southern Outlier,,None,None,Brazil;,South America,"(-9.0, -67.0)",149,Brazil,-9.0,-67.0
211,1347,apx,Aputai,Ilputih; Opotai; Tutunohan,Endangered,150.0,Austronesian; Malayo-Polynesian; Timor,Lurang; Ilputih; Welemur,None,None,Indonesia;,Southeast Asia,"(-7.6511, 126.4086)",150,Indonesia,-7.6511,126.4086
212,3857,ard,Arabana-Wangkangurru,Arbana; Ngarabana; Arabuna; Arrabunna; Arrabonna; Arubbinna; Arapina; Arapani; Urapuna; Urabuna; Urabunna; Urroban; Wangarabana; Wongkurapuna; Wangarabunna; Nulla; Rabuna;Arabana;,Dormant,0.0,Pama-Nyungan; Karnic,,"Note on Australian languages with no known speakers: For some languages, we haven't been able to confirm speaker numbers. In other cases, there isn't anyone who has grown up speaking the language, but there are still people who identify with the language, and who are working to revitalize their languages. We've chosen to include these languages in the Catalogue for this reason.",None,Australia;,Australia,"(-31.30521924, 138.428335)",151,Australia,-31.30521924,138.428335
213,660,arl,Arabela,Chiripuno; Chiripunu; Arabela-Andoa;,Critically Endangered,30.0,Zaparoan,,None,None,Peru;,South America,"(-2.0, -75.1666666667)",152,Peru,-2.0,-75.1666666667
214,949,arg,Aragonese,Aragoieraz; Altoaragonés; Aragonés; Fabla Aragonesa; Patués; High Aragonese;,Endangered,10000.0,Indo-European; Italic; Romance; Western Romance,Western Aragonese; Southern Aragonese; Central Aragonese; Eastern Aragonese;,None,"""Eastern Aragonese"" is sometimes used by some groups to refer to the variety of Catalan spoken in Eastern Aragon, though Catalan is a different language from Aragonese. Both languages are native languages in Aragon.",Spain;,Europe,"(42.2935, -0.4394)",153,Spain,42.2935,-0.4394
215,3829,akr,Araki,Banks-Inseln;,Critically Endangered,15.0,Austronesian; Malayo-Polynesian; Oceanic; Northern Vanuatu,,None,None,Vanuatu;,Pacific,"(-15.6666666667, 166.916666667)",154,Vanuatu,-15.6666666667,166.916666667
216,3578,aaf,Aranadan,Aranatan; Eranadans,Endangered,200.0,Dravidian; South Dravidian,,None,None,India;,South Asia,"(11.35, 75.8)",155,India,11.35,75.8
217,661,arp,Arapaho,Arrapahoe; Northern Arapaho; Arapaho-Atsina;,Severely Endangered,1000.0,Algic; Algonquian; Arapahoan,Gros Ventre; Besawunena; Haʔanahawunena; Arapaho; Nawathinehena;,None,None,USA;,North America,"(43.0139, -108.8214)",157,United States of America,43.0139,-108.8214
218,1705,arj,Arapaso,Arapaço; Araspaso; Koneá; Arapasso;,Dormant,0.0,Tucanoan; Eastern Tucanoan,,None,None,Brazil;,South America,"(0.0, -66.0)",158,Brazil,0.0,-66.0
219,663,awt,Araweté,Bïde; Asuriní; Asuriní do Xingú; Asuriní do Coatinema; Awaeté;,Endangered,339.0,Tupian; Tupi-Guaranian; Xingu,,None,None,Brazil;,South America,"(-5.1347, -52.3388)",160,Brazil,-5.1347,-52.3388
220,2047,awm; araw1272,Arawum,,Severely Endangered,73.0,Trans-New Guinea; Madang; Rai Coast; Kabenau,,None,None,Papua New Guinea;,Pacific,"(-5.5093, 145.8929)",161,Papua New Guinea,-5.5093,145.8929
221,962,aae,Arbëreshë,"Italo-Albanian; Albanian; Arber; Arbresh; Arnaut; Škip; Shqipēri; Shquipni; Arbëreshë Albanian; Arbëreshë; Albanesisch; Albanian, Arbëreshë",Vulnerable,100000.0,Indo-European; Albanian; Tosk,Sicilian Albanian; Central Mountain Albanian; Campo Marino Albanian; Calabrian Albanian;,"Outlying dialect of (Tosk) Albanian (Moseley, 2005)",None,Italy;,Europe,"(40.9321, 14.8645)",162,Italy,40.9321,14.8645
222,3859,arv,Arbore,Arbora; Erbore; Irbore; Arborie;,Threatened,4441.0,Afro-Asiatic; Cushitic; Lowland East Cushitic,,None,None,Ethiopia;,Africa,"(5.0, 36.75)",163,Ethiopia,5.0,36.75
223,721,aqc,Archi,арчинский язык; аршаттен чIат; Archintsy; Archin; Arshashdib; Archib; Archsel; არჩიბული ენა,Threatened,1237.0,Northeast Caucasian; Daghestanian; Lezgic,,None,None,Russia;,Caucasus,"(42.0, 46.8333333333)",164,Russia,42.0,46.8333333333
224,721,aqc,Archi,арчинский язык; аршаттен чIат; Archintsy; Archin; Arshashdib; Archib; Archsel; არჩიბული ენა,Threatened,1237.0,Northeast Caucasian; Daghestanian; Lezgic,,None,None,Russia;,Europe,"(42.0, 46.8333333333)",164,Russia,42.0,46.8333333333
225,721,aqc,Archi,арчинский язык; аршаттен чIат; Archintsy; Archin; Arshashdib; Archib; Archsel; არჩიბული ენა,Threatened,1237.0,Northeast Caucasian; Daghestanian; Lezgic,,None,None,Russia;,East Asia,"(42.0, 46.8333333333)",164,Russia,42.0,46.8333333333
226,1219,aem,Arem,A-Rem; Chomrau; Chombrau; Umo,Critically Endangered,100.0,Austro-Asiatic; Vietic; Pong-Chut,,None,The term Arem (Vietnamese spelling of areːm) seems to be an exonym (Ferlus 2013:1). ,Vietnam;Laos;,Southeast Asia,"(18.1771, 105.3369)",165,Vietnam,18.1771,105.3369
227,1219,aem,Arem,A-Rem; Chomrau; Chombrau; Umo,Critically Endangered,100.0,Austro-Asiatic; Vietic; Pong-Chut,,None,The term Arem (Vietnamese spelling of areːm) seems to be an exonym (Ferlus 2013:1). ,Vietnam;Laos;,Southeast Asia,"(18.1771, 105.3369)",165,Laos,18.1771,105.3369
228,3685,agj,Argobba,Argoba;,Vulnerable,10860.0,Afro-Asiatic; Semitic; Ethiopic,,None,None,Ethiopia;,Africa,"(10.5958, 39.9792)",167,Ethiopia,10.5958,39.9792
229,1349,agf,Arguni,Argoeni,Endangered,150.0,Austronesian; Malayo-Polynesian; South Halmahera-West New Guinea,,None,None,Indonesia;,Southeast Asia,"(-2.6632, 132.5418)",168,Indonesia,-2.6632,132.5418
230,3856,aqr,Arhâ,Ara; Neukaledonien;,Severely Endangered,35.0,Austronesian; Malayo-Polynesian; Oceanic; New Caledonian,,None,None,New Caledonia;,Pacific,"(-21.3047, 165.0146)",169,New Caledonia,-21.3047,165.0146
231,3849,aok,Arhö,Aro; Neukaledonien;,Severely Endangered,62.0,Austronesian; Malayo-Polynesian; Oceanic; New Caledonian,,None,None,New Caledonia;,Pacific,"(-21.274, 165.0503)",170,New Caledonia,-21.274,165.0503
232,2887,aac,Ari,,Severely Endangered,50.0,Trans-New Guinea; Gogodalic,,None,None,Papua New Guinea;,Pacific,"(-8.0, 142.4)",171,Papua New Guinea,-8.0,142.4
233,3594,aea,Ariba,Kurtjar; Araba; Rib; Ribh; A:rap; Aripa; Ngariba; Areba,Critically Endangered,2.0,Pama-Nyungan; Paman,,"Note on Australian languages with no known speakers: For some languages, we haven't been able to confirm speaker numbers. In other cases, there isn't anyone who has grown up speaking the language, but there are still people who identify with the language, and who are working to revitalize their languages. We've chosen to include these languages in the Catalogue for this reason.",None,Australia;,Australia,"(-17.120653, 141.833361)",172,Australia,-17.120653,141.833361
234,3579,aai,Arifama-Miniafia,Miniafia-Arifama;,Threatened,3470.0,Austronesian; Malayo-Polynesian; Oceanic; Papuan Tip,Arifama; Miniafia;,None,None,Papua New Guinea;,Pacific,"(-9.518239975, 149.349884)",173,Papua New Guinea,-9.518239975,149.349884
235,664,ark,Arikapú,Arikapu; Aricapú; Aricapu; Maxubí; Mashubi; ,Critically Endangered,1.0,Jabutian,,None,"Hein van der Voort (2012) has shown that Mashubi (Maxubí), formerly identified as a separate language, is in fact just Arikapú.",Brazil;,South America,"(-12.0527, -64.7259)",174,Brazil,-12.0527,-64.7259
236,1672,ari,Arikara,Ree; Ricara; Arikari; Arikaris; Arikaree; Ris;,Critically Endangered,10.0,Caddoan,,None,None,USA;,North America,"(47.648, -101.8327)",175,United States of America,47.648,-101.8327
237,963,rup,Aromanian,Armãneashti; Armãneascã; Armãneshce; Rrămăneashti; Machiduneashti; Armân; Arumanian; Armina; Vlach; Arumun; Aromunian; Macedo-Romanian; Macedo-Rumanian; Other Roumanian Lects;,Threatened,350000.0,Indo-European; Italic; Romance; Eastern Romance,,None,None,Bulgaria;Romania;Greece;Macedonia;Albania;Bosnia and Herzegovina;Serbia;,Europe,"(40.2292, 21.1376)",176,Bulgaria,40.2292,21.1376
238,963,rup,Aromanian,Armãneashti; Armãneascã; Armãneshce; Rrămăneashti; Machiduneashti; Armân; Arumanian; Armina; Vlach; Arumun; Aromunian; Macedo-Romanian; Macedo-Rumanian; Other Roumanian Lects;,Threatened,350000.0,Indo-European; Italic; Romance; Eastern Romance,,None,None,Bulgaria;Romania;Greece;Macedonia;Albania;Bosnia and Herzegovina;Serbia;,Europe,"(40.2292, 21.1376)",176,Romania,40.2292,21.1376
239,963,rup,Aromanian,Armãneashti; Armãneascã; Armãneshce; Rrămăneashti; Machiduneashti; Armân; Arumanian; Armina; Vlach; Arumun; Aromunian; Macedo-Romanian; Macedo-Rumanian; Other Roumanian Lects;,Threatened,350000.0,Indo-European; Italic; Romance; Eastern Romance,,None,None,Bulgaria;Romania;Greece;Macedonia;Albania;Bosnia and Herzegovina;Serbia;,Europe,"(40.2292, 21.1376)",176,Greece,40.2292,21.1376
240,963,rup,Aromanian,Armãneashti; Armãneascã; Armãneshce; Rrămăneashti; Machiduneashti; Armân; Arumanian; Armina; Vlach; Arumun; Aromunian; Macedo-Romanian; Macedo-Rumanian; Other Roumanian Lects;,Threatened,350000.0,Indo-European; Italic; Romance; Eastern Romance,,None,None,Bulgaria;Romania;Greece;Macedonia;Albania;Bosnia and Herzegovina;Serbia;,Europe,"(40.2292, 21.1376)",176,Macedonia,40.2292,21.1376
241,963,rup,Aromanian,Armãneashti; Armãneascã; Armãneshce; Rrămăneashti; Machiduneashti; Armân; Arumanian; Armina; Vlach; Arumun; Aromunian; Macedo-Romanian; Macedo-Rumanian; Other Roumanian Lects;,Threatened,350000.0,Indo-European; Italic; Romance; Eastern Romance,,None,None,Bulgaria;Romania;Greece;Macedonia;Albania;Bosnia and Herzegovina;Serbia;,Europe,"(40.2292, 21.1376)",176,Albania,40.2292,21.1376
242,963,rup,Aromanian,Armãneashti; Armãneascã; Armãneshce; Rrămăneashti; Machiduneashti; Armân; Arumanian; Armina; Vlach; Arumun; Aromunian; Macedo-Romanian; Macedo-Rumanian; Other Roumanian Lects;,Threatened,350000.0,Indo-European; Italic; Romance; Eastern Romance,,None,None,Bulgaria;Romania;Greece;Macedonia;Albania;Bosnia and Herzegovina;Serbia;,Europe,"(40.2292, 21.1376)",176,Bosnia and Herzegovina,40.2292,21.1376
243,963,rup,Aromanian,Armãneashti; Armãneascã; Armãneshce; Rrămăneashti; Machiduneashti; Armân; Arumanian; Armina; Vlach; Arumun; Aromunian; Macedo-Romanian; Macedo-Rumanian; Other Roumanian Lects;,Threatened,350000.0,Indo-European; Italic; Romance; Eastern Romance,,None,None,Bulgaria;Romania;Greece;Macedonia;Albania;Bosnia and Herzegovina;Serbia;,Europe,"(40.2292, 21.1376)",176,Serbia,40.2292,21.1376
244,2834,atz,Arta,,Critically Endangered,11.0,Austronesian; Malayo-Polynesian; Northern Luzon,,None,None,Philippines;,Southeast Asia,"(16.216, 121.599)",177,Philippines,16.216,121.599
245,3835,alx,Aru,Alang; Alatil; Amol; Eru,Endangered,270.0,Torricelli; Palei; Mol; Oru,,None,None,Papua New Guinea;,Pacific,"(-3.45706296, 142.539093)",178,Papua New Guinea,-3.45706296,142.539093
246,665,arx,Aruá,Aruaxi; Aruashí; Cinta Larga; Gavião; Zoró;,Critically Endangered,5.0,Tupian; Mondean,Aruáshi;,None,None,Brazil;,South America,"(-12.0285, -64.7094)",179,Brazil,-12.0285,-64.7094
247,10650,msy,Aruamu,Ariawia; Ariawiai; Gumasi; Makarub; Makarup; Mikarew; Mikarew-Ariaw; Mikarup,Threatened,5350.0,Lower Sepik-Ramu; Ramu; Lower Ramu,,None,None,Papua New Guinea;,Pacific,"(-4.29, 144.84)",180,Papua New Guinea,-4.29,144.84
248,10566,aur,Aruek,Djang; Jang,Endangered,614.0,Torricelli; Kombian,,None,None,Papua New Guinea;,Pacific,"(-3.38, 142.72)",181,Papua New Guinea,-3.38,142.72
249,10551,lsr,Aruop,Alatil; Lau'u; Lauisaranga; Lausurankin; Lawu Srenge; Srenge,Endangered,700.0,Torricelli; Palei,,None,None,Papua New Guinea;,Pacific,"(-3.46, 142.48)",182,Papua New Guinea,-3.46,142.48
250,3582,aat,Arvanitika,"Albanian; Arber; Arbresh; Arnaut; Škip; Shqipēri; Shquipni; Arvanitika; Arvanitika Albanian; Arvanitic; Arberichte; Albanesisch; Albanian, Arvanitika",Vulnerable,50000.0,Indo-European; Albanian; Tosk,Northwestern Arvanitika; South Central Arvanitika; Thracean Arvanitika,None,None,Greece;,Europe,"(38.1863, 23.6096)",184,Greece,38.1863,23.6096
251,1350,asz; asss1237,As,,Critically Endangered,5.5,Austronesian; Malayo-Polynesian; South Halmahera-West New Guinea; Raja Ampat-South Halmahera,,None,None,Indonesia;,Southeast Asia,"(-0.742007, 131.683156)",185,Indonesia,-0.742007,131.683156
252,2687,seo,Asaba,Duranmin; Akiapmin; Suarmin; Wani,Threatened,145.0,Isolate,,None,None,Papua New Guinea;,Pacific,"(-5.0526, 141.9818)",186,Papua New Guinea,-5.0526,141.9818
253,1577,adi-ash,Ashing,,Endangered,1000.0,Sino-Tibetan; Tani,,None,None,India;,South Asia,,189,India,,
254,1578,ask,Ashkun,Ashkund; Ashkuni; Wamayi; Wamai; Askun;,Threatened,7000.0,Indo-European; Indo-Iranian; Nuristani,Suruviri; Ashuruveri; Gramsukraviri;,None,None,Afghanistan;,Near East,"(34.9973, 71.0746)",190,Afghanistan,34.9973,71.0746
255,3866,atn,Ashtiani,Astiani; Ashtiyani;,Vulnerable,21100.0,Indo-European; Indo-Iranian; Iranian; Western Iranian,Ashtiani; Tafresh;,None,None,Iran;,Near East,"(34.4861, 51.0562)",191,Iran,34.4861,51.0562
256,5191,sjg,Assangori,Sungor; Soungor; Assoungor; Azanguri; Asong; Asungore; Bognak-Asungorung; Madungore; Assagori; Azangori; Asongori; Erenga; Shaale;,Vulnerable,23500.0,Taman,Sebunkik; Walad Dulla; Erenga; Murasi; Sungor; Girga;,None,None,Sudan;Chad;,Africa,"(13.75, 21.5)",193,Sudan,13.75,21.5
257,5191,sjg,Assangori,Sungor; Soungor; Assoungor; Azanguri; Asong; Asungore; Bognak-Asungorung; Madungore; Assagori; Azangori; Asongori; Erenga; Shaale;,Vulnerable,23500.0,Taman,Sebunkik; Walad Dulla; Erenga; Murasi; Sungor; Girga;,None,None,Sudan;Chad;,Africa,"(13.75, 21.5)",193,Chad,13.75,21.5
258,677,asb,Assiniboine,Assiniboin; Stoney; Hohe; Assinaboin; Nakon;,Endangered,150.0,Siouan; Mississippi Valley Siouan; Dakota,,None,"Dakotan is a Siouan dialect complex, with three well defined dialect areas:  Stoney, currently spoken in southwestern Alberta;  Assinibone, in southern Saskatchewan and northern Montana;  and Sioux, spoken widely in North and South Dakota, Minnesota, and in southern Manitoba and Saskatchewan.  Intelligibility between these dialect areas is low, although speakers can communicate after a while with some difficulty, and they are perhaps best considered emergent languages.",USA;Canada;,North America,"(48.4466, -114.8783)",194,United States of America,48.4466,-114.8783
259,677,asb,Assiniboine,Assiniboin; Stoney; Hohe; Assinaboin; Nakon;,Endangered,150.0,Siouan; Mississippi Valley Siouan; Dakota,,None,"Dakotan is a Siouan dialect complex, with three well defined dialect areas:  Stoney, currently spoken in southwestern Alberta;  Assinibone, in southern Saskatchewan and northern Montana;  and Sioux, spoken widely in North and South Dakota, Minnesota, and in southern Manitoba and Saskatchewan.  Intelligibility between these dialect areas is low, although speakers can communicate after a while with some difficulty, and they are perhaps best considered emergent languages.",USA;Canada;,North America,"(48.4466, -114.8783)",194,Canada,48.4466,-114.8783
260,677,asb,Assiniboine,Assiniboin; Stoney; Hohe; Assinaboin; Nakon;,Endangered,150.0,Siouan; Mississippi Valley Siouan; Dakota,,None,"Dakotan is a Siouan dialect complex, with three well defined dialect areas:  Stoney, currently spoken in southwestern Alberta;  Assinibone, in southern Saskatchewan and northern Montana;  and Sioux, spoken widely in North and South Dakota, Minnesota, and in southern Manitoba and Saskatchewan.  Intelligibility between these dialect areas is low, although speakers can communicate after a while with some difficulty, and they are perhaps best considered emergent languages.",USA;Canada;,North America,"(50.3536, -103.4841)",194,United States of America,50.3536,-103.4841
261,677,asb,Assiniboine,Assiniboin; Stoney; Hohe; Assinaboin; Nakon;,Endangered,150.0,Siouan; Mississippi Valley Siouan; Dakota,,None,"Dakotan is a Siouan dialect complex, with three well defined dialect areas:  Stoney, currently spoken in southwestern Alberta;  Assinibone, in southern Saskatchewan and northern Montana;  and Sioux, spoken widely in North and South Dakota, Minnesota, and in southern Manitoba and Saskatchewan.  Intelligibility between these dialect areas is low, although speakers can communicate after a while with some difficulty, and they are perhaps best considered emergent languages.",USA;Canada;,North America,"(50.3536, -103.4841)",194,Canada,50.3536,-103.4841
262,966,ast,Asturian,Asturiano; Leonese; Leonés; Astur-Leonese; Asturian-Leonese; Asturianu,At risk,110000.0,Indo-European; Italic; Romance; Western Romance,Central Asturian; West Asturian; Western Asturian; Eastern Asturian; Leonese;,"Some people wish to consider the differences between Asturian and the varieties spoken in Cantabria, Spain as distinct enough to merit special consideration.",None,Spain;Portugal;,Europe,"(43.357138, -5.865532)",195,Spain,43.357138,-5.865532
263,966,ast,Asturian,Asturiano; Leonese; Leonés; Astur-Leonese; Asturian-Leonese; Asturianu,At risk,110000.0,Indo-European; Italic; Romance; Western Romance,Central Asturian; West Asturian; Western Asturian; Eastern Asturian; Leonese;,"Some people wish to consider the differences between Asturian and the varieties spoken in Cantabria, Spain as distinct enough to merit special consideration.",None,Spain;Portugal;,Europe,"(43.357138, -5.865532)",195,Portugal,43.357138,-5.865532
264,966,ast,Asturian,Asturiano; Leonese; Leonés; Astur-Leonese; Asturian-Leonese; Asturianu,At risk,110000.0,Indo-European; Italic; Romance; Western Romance,Central Asturian; West Asturian; Western Asturian; Eastern Asturian; Leonese;,"Some people wish to consider the differences between Asturian and the varieties spoken in Cantabria, Spain as distinct enough to merit special consideration.",None,Spain;Portugal;,Europe,"(42.596565, -5.571648)",195,Spain,42.596565,-5.571648
265,966,ast,Asturian,Asturiano; Leonese; Leonés; Astur-Leonese; Asturian-Leonese; Asturianu,At risk,110000.0,Indo-European; Italic; Romance; Western Romance,Central Asturian; West Asturian; Western Asturian; Eastern Asturian; Leonese;,"Some people wish to consider the differences between Asturian and the varieties spoken in Cantabria, Spain as distinct enough to merit special consideration.",None,Spain;Portugal;,Europe,"(42.596565, -5.571648)",195,Portugal,42.596565,-5.571648
266,966,ast,Asturian,Asturiano; Leonese; Leonés; Astur-Leonese; Asturian-Leonese; Asturianu,At risk,110000.0,Indo-European; Italic; Romance; Western Romance,Central Asturian; West Asturian; Western Asturian; Eastern Asturian; Leonese;,"Some people wish to consider the differences between Asturian and the varieties spoken in Cantabria, Spain as distinct enough to merit special consideration.",None,Spain;Portugal;,Europe,"(41.504464, -5.746056)",195,Spain,41.504464,-5.746056
267,966,ast,Asturian,Asturiano; Leonese; Leonés; Astur-Leonese; Asturian-Leonese; Asturianu,At risk,110000.0,Indo-European; Italic; Romance; Western Romance,Central Asturian; West Asturian; Western Asturian; Eastern Asturian; Leonese;,"Some people wish to consider the differences between Asturian and the varieties spoken in Cantabria, Spain as distinct enough to merit special consideration.",None,Spain;Portugal;,Europe,"(41.504464, -5.746056)",195,Portugal,41.504464,-5.746056
268,966,ast,Asturian,Asturiano; Leonese; Leonés; Astur-Leonese; Asturian-Leonese; Asturianu,At risk,110000.0,Indo-European; Italic; Romance; Western Romance,Central Asturian; West Asturian; Western Asturian; Eastern Asturian; Leonese;,"Some people wish to consider the differences between Asturian and the varieties spoken in Cantabria, Spain as distinct enough to merit special consideration.",None,Spain;Portugal;,Europe,"(41.49945, -6.271331)",195,Spain,41.49945,-6.271331
269,966,ast,Asturian,Asturiano; Leonese; Leonés; Astur-Leonese; Asturian-Leonese; Asturianu,At risk,110000.0,Indo-European; Italic; Romance; Western Romance,Central Asturian; West Asturian; Western Asturian; Eastern Asturian; Leonese;,"Some people wish to consider the differences between Asturian and the varieties spoken in Cantabria, Spain as distinct enough to merit special consideration.",None,Spain;Portugal;,Europe,"(41.49945, -6.271331)",195,Portugal,41.49945,-6.271331
270,966,ast,Asturian,Asturiano; Leonese; Leonés; Astur-Leonese; Asturian-Leonese; Asturianu,At risk,110000.0,Indo-European; Italic; Romance; Western Romance,Central Asturian; West Asturian; Western Asturian; Eastern Asturian; Leonese;,"Some people wish to consider the differences between Asturian and the varieties spoken in Cantabria, Spain as distinct enough to merit special consideration.",None,Spain;Portugal;,Europe,"(41.585661, -6.524609)",195,Spain,41.585661,-6.524609
271,966,ast,Asturian,Asturiano; Leonese; Leonés; Astur-Leonese; Asturian-Leonese; Asturianu,At risk,110000.0,Indo-European; Italic; Romance; Western Romance,Central Asturian; West Asturian; Western Asturian; Eastern Asturian; Leonese;,"Some people wish to consider the differences between Asturian and the varieties spoken in Cantabria, Spain as distinct enough to merit special consideration.",None,Spain;Portugal;,Europe,"(41.585661, -6.524609)",195,Portugal,41.585661,-6.524609
272,3871,aua,Asumboa,Asumbua; Asumuo;,Severely Endangered,10.0,Austronesian; Malayo-Polynesian; Oceanic; Temotu,,None,None,Solomon Islands;,Pacific,"(-11.2982, 166.4868)",196,Solomon Islands,-11.2982,166.4868
273,3129,asun1236,Asunción Mixtepec Zapotec,"North Central Zimatlan Zapotec, Zapoteco de Asunción Mixtepec, Central Zapotec,",Severely Endangered,100.0,Otomanguean; Zapotecan,"San Pablo Cuatro Venados, Magdalena Mixtepec, San Bernardo Mixtepec, Asunción Mixtepec.",1 of approximately 11-12 Central Zapotec languages.,"Ethnologue list 57 Zapotec languages. INALI gives 62 ""variantes"" of Zapoteco. SIL and INALI count each variety of Zapotec, some of which are mutually intelligible dialects of the same language. The exact number of distinct languages that need to be recognized is unclear. The most current linguistic research suggests approx. 18 Zapotec languages distributed in 5 major language areas: (1) Northern (ca. 5 languages); (2) Central (ca. 7 languages); (3) Southern (ca. 4 languages); (4) Papabuco (1 language); (5) Western (1 language).""While there is no consensus yet as to the dialectal classification of Zapotec languages, the point to be made here is that the diversity of Zapotec languages is extremely rich."" (Pérez Báez 2011)",Mexico;,Mexico,"(16.88, -96.87)",197,Mexico,16.88,-96.87
274,3129,asun1236,Asunción Mixtepec Zapotec,"North Central Zimatlan Zapotec, Zapoteco de Asunción Mixtepec, Central Zapotec,",Severely Endangered,100.0,Otomanguean; Zapotecan,"San Pablo Cuatro Venados, Magdalena Mixtepec, San Bernardo Mixtepec, Asunción Mixtepec.",1 of approximately 11-12 Central Zapotec languages.,"Ethnologue list 57 Zapotec languages. INALI gives 62 ""variantes"" of Zapoteco. SIL and INALI count each variety of Zapotec, some of which are mutually intelligible dialects of the same language. The exact number of distinct languages that need to be recognized is unclear. The most current linguistic research suggests approx. 18 Zapotec languages distributed in 5 major language areas: (1) Northern (ca. 5 languages); (2) Central (ca. 7 languages); (3) Southern (ca. 4 languages); (4) Papabuco (1 language); (5) Western (1 language).""While there is no consensus yet as to the dialectal classification of Zapotec languages, the point to be made here is that the diversity of Zapotec languages is extremely rich."" (Pérez Báez 2011)",Mexico;,Central America,"(16.88, -96.87)",197,Mexico,16.88,-96.87
275,3129,asun1236,Asunción Mixtepec Zapotec,"North Central Zimatlan Zapotec, Zapoteco de Asunción Mixtepec, Central Zapotec,",Severely Endangered,100.0,Otomanguean; Zapotecan,"San Pablo Cuatro Venados, Magdalena Mixtepec, San Bernardo Mixtepec, Asunción Mixtepec.",1 of approximately 11-12 Central Zapotec languages.,"Ethnologue list 57 Zapotec languages. INALI gives 62 ""variantes"" of Zapoteco. SIL and INALI count each variety of Zapotec, some of which are mutually intelligible dialects of the same language. The exact number of distinct languages that need to be recognized is unclear. The most current linguistic research suggests approx. 18 Zapotec languages distributed in 5 major language areas: (1) Northern (ca. 5 languages); (2) Central (ca. 7 languages); (3) Southern (ca. 4 languages); (4) Papabuco (1 language); (5) Western (1 language).""While there is no consensus yet as to the dialectal classification of Zapotec languages, the point to be made here is that the diversity of Zapotec languages is extremely rich."" (Pérez Báez 2011)",Mexico;,Caribbean,"(16.88, -96.87)",197,Mexico,16.88,-96.87
276,1579,asr,Asuri,Ashree; Asura; Assur; Maleta; Mundari; Mundari-Ho; Asur,Threatened,7000.0,Austro-Asiatic; Munda; North Munda; Kherwarian,Manjhi; Brijia,None,None,India;,South Asia,"(22.4719, 84.9023)",198,India,22.4719,84.9023
277,1720,asu,Asuriní do Tocantins,"Asuriní; Assuriní; Assuriní do Tocantins; Asuriní do Trocará; Akwaya; Akuawa; Parakaná; Asurí; Mudjetire; Suru do Tocantins; Asurini; Tocantins Asuriní; Assurini; Asuriní do Tocantins; Akwáwa; Asurini, Tocantins",Endangered,384.0,Tupian; Tupi-Guaranian; Teneteharan,,None,None,Brazil;,South America,,199,Brazil,,
278,3865,atm,Ata,,Critically Endangered,4.0,Austronesian; Malayo-Polynesian; Greater Central Philippine; Bisayan,,None,None,Philippines;,Southeast Asia,"(9.6081, 122.9155)",201,Philippines,9.6081,122.9155
279,3842,amz,Atampaya,,Critically Endangered,4.0,Pama-Nyungan; Paman,,"Note on Australian languages with no known speakers: For some languages, we haven't been able to confirm speaker numbers. In other cases, there isn't anyone who has grown up speaking the language, but there are still people who identify with the language, and who are working to revitalize their languages. We've chosen to include these languages in the Catalogue for this reason.",None,Australia;,Australia,"(-11.48211057, 142.3743784)",202,Australia,-11.48211057,142.3743784
280,3852,aph,Athpariya,Athpare; Rai; Athapre; Ath Paharia Rai; Athpre; Arthare; Arthare-Khesang; Jamindar Rai; Jindā,Threatened,3658.0,Sino-Tibetan; Kiranti,,None,None,Nepal;,South Asia,"(26.952, 87.3399)",203,Nepal,26.952,87.3399
281,3864,atk,Ati (Philippines),Inati; Bisaya,Endangered,1500.0,Austronesian; Malayo-Polynesian,Barotac Viejo Nagpana (southern dialect); Malay (northern dialect); Sogodnin (high speech register),None,None,Philippines;,Southeast Asia,"(11.15, 122.51)",204,Philippines,11.15,122.51
282,10782,,Ati (Vanuatu),Polonombauk; Meris,Severely Endangered,85.0,"Austronesian, Malayo-Polynesian, Oceanic, Northern Vanuatu",,None,None,Vanuatu;,Pacific,,205,Vanuatu,,
283,10781,,Atin,,Endangered,120.0,Austronesian; Malayo-Polynesian; Oceanic; Northern Vanuatu,,None,None,Vanuatu;,Pacific,,206,Vanuatu,,
284,1581,ato,Atong (Cameroon),Etoh;,Vulnerable,4200.0, Benue-Congo; Southern Bantoid,,None,None,Cameroon;,Africa,"(6.044967, 9.748787)",207,Cameroon,6.044967,9.748787
285,679,atw,Atsugewi,Atsugewi; Hat Creek;,Dormant,0.0,Palaihnihan,"Atsuge (Hat Creek Atsugewi), Apwaruge (Dixie Valley Atsugewi)",None,None,USA;,North America,"(40.75, -121.0)",209,United States of America,40.75,-121.0
286,1673,atj,Attikamek,Cree; Atikamekw; Tête de Boule; Attimewk; Atihkamekw; Atikamek; Attikamekw;,Vulnerable,3000.0,Algic; Algonquian; Cree-Montagnais,,None,None,Canada;,North America,"(48.0, -74.0)",210,Canada,48.0,-74.0
287,10544,avt,Au,,Threatened,4200.0,Torricelli; Wapei,,None,None,Papua New Guinea;,Pacific,"(-3.6, 142.1)",211,Papua New Guinea,-3.6,142.1
288,10749,aul,Aulua,,Endangered,750.0,Austronesian; Malayo-Polynesian; Oceanic; Central Vanuatu,Boinelang; Onesso,None,None,Vanuatu;,Pacific,"(-16.36, 167.7)",212,Vanuatu,-16.36,167.7
289,3876,aux,Auré,Aurê; Aurá,Dormant,0.0,Tupian; Tupi-Guaranian; Xingu,,None,None,Brazil;,South America,"(-2.9649, -46.2084)",213,Brazil,-2.9649,-46.2084
290,2448,aut,Austral,Tubuai-Rurutu;,Threatened,8000.0,Austronesian; Malayo-Polynesian; Oceanic; Polynesian,Tubuai; Rimatara; Raivavae; Rurutu;,None,None,French Polynesia;,Pacific,"(-23.3775, -149.4909)",214,French Polynesia,-23.3775,-149.4909
291,2066,asf,Australian Sign Language,Auslan;,Threatened,6500.0,Sign Language; Australian,,None,None,Australia;,Australia,"(-35.3075, 149.124417)",215,Australia,-35.3075,149.124417
